[{"name":"Tokyo","province":"Tokyo","country":"Japan","lat":35.68501691,"lng":139.7514074,"tz":"Asia/Tokyo","pop":22006300},{"name":"Mumbai","province":"Maharashtra","country":"India","lat":19.01699038,"lng":72.8569893,"tz":"Asia/Kolkata","pop":15834918},{"name":"Mexico City","province":"Distrito Federal","country":"Mexico","lat":19.44244244,"lng":-99.1309882,"tz":"America/Mexico_City","pop":14919501},{"name":"Shanghai","province":"Shanghai","country":"China","lat":31.21645245,"lng":121.4365047,"tz":"Asia/Shanghai","pop":14797756},{"name":"Sao Paulo","province":"São Paulo","country":"Brazil","lat":-23.55867959,"lng":-46.62501998,"tz":"America/Sao_Paulo","pop":14433148},{"name":"New York","province":"New York","country":"United States of America","lat":40.74997906,"lng":-73.98001693,"tz":"America/New_York","pop":13524139},{"name":"Mumbai","province":"","country":"India","lat":19.07283,"lng":72.88261,"tz":"Asia/Kolkata","pop":12691836},{"name":"Karachi","province":"Sind","country":"Pakistan","lat":24.86999229,"lng":66.99000891,"tz":"Asia/Karachi","pop":11877110},{"name":"Buenos Aires","province":"Ciudad de Buenos Aires","country":"Argentina","lat":-34.60250161,"lng":-58.39753137,"tz":"America/Argentina/Buenos_Aires","pop":11862073},{"name":"Delhi","province":"Delhi","country":"India","lat":28.6699929,"lng":77.23000403,"tz":"Asia/Kolkata","pop":11779607},{"name":"Delhi","province":"","country":"India","lat":28.65195,"lng":77.23149,"tz":"Asia/Kolkata","pop":10927986},{"name":"Moscow","province":"Moskva","country":"Russia","lat":55.75216412,"lng":37.61552283,"tz":"Europe/Moscow","pop":10452000},{"name":"Istanbul","province":"Istanbul","country":"Turkey","lat":41.10499615,"lng":29.01000159,"tz":"Europe/Istanbul","pop":10003305},{"name":"Dhaka","province":"Dhaka","country":"Bangladesh","lat":23.72305971,"lng":90.40857947,"tz":"Asia/Dhaka","pop":9899167},{"name":"Cairo","province":"Al Qahirah","country":"Egypt","lat":30.04996035,"lng":31.24996822,"tz":"Africa/Cairo","pop":9813807},{"name":"Seoul","province":"Seoul","country":"South Korea","lat":37.5663491,"lng":126.999731,"tz":"Asia/Seoul","pop":9796000},{"name":"Kolkata","province":"West Bengal","country":"India","lat":22.4949693,"lng":88.32467566,"tz":"Asia/Kolkata","pop":9709196},{"name":"Beijing","province":"Beijing","country":"China","lat":39.92889223,"lng":116.3882857,"tz":"Asia/Shanghai","pop":9293301},{"name":"Jakarta","province":"Jakarta Raya","country":"Indonesia","lat":-6.174417705,"lng":106.8294376,"tz":"Asia/Jakarta","pop":8832561},{"name":"Los Angeles","province":"California","country":"United States of America","lat":33.98997825,"lng":-118.1799805,"tz":"America/Los_Angeles","pop":8097410},{"name":"London","province":"Westminster","country":"United Kingdom","lat":51.49999473,"lng":-0.116721844,"tz":"Europe/London","pop":7994105},{"name":"Tehran","province":"Tehran","country":"Iran","lat":35.67194277,"lng":51.42434403,"tz":"Asia/Tehran","pop":7513155},{"name":"Lima","province":"Lima","country":"Peru","lat":-12.04801268,"lng":-77.05006209,"tz":"America/Lima","pop":7385117},{"name":"Manila","province":"Metropolitan Manila","country":"Philippines","lat":14.60415895,"lng":120.9822172,"tz":"Asia/Manila","pop":7088788},{"name":"Bogota","province":"Bogota","country":"Colombia","lat":4.596423563,"lng":-74.08334396,"tz":"America/Bogota","pop":7052831},{"name":"Osaka","province":"Osaka","country":"Japan","lat":34.75003522,"lng":135.4601448,"tz":"Asia/Tokyo","pop":6943207},{"name":"Rio de Janeiro","province":"Rio de Janeiro","country":"Brazil","lat":-22.92502317,"lng":-43.22502079,"tz":"America/Sao_Paulo","pop":6879088},{"name":"Kinshasa","province":"Kinshasa City","country":"Congo (Kinshasa)","lat":-4.329724102,"lng":15.31497188,"tz":"Africa/Kinshasa","pop":6704352},{"name":"Lahore","province":"Punjab","country":"Pakistan","lat":31.55997154,"lng":74.35002478,"tz":"Asia/Karachi","pop":6443944},{"name":"Guangzhou","province":"Guangdong","country":"China","lat":23.1449813,"lng":113.3250101,"tz":"Asia/Shanghai","pop":5990913},{"name":"Bengaluru","province":"Karnataka","country":"India","lat":12.96999514,"lng":77.56000972,"tz":"Asia/Kolkata","pop":5945524},{"name":"Chicago","province":"Illinois","country":"United States of America","lat":41.82999066,"lng":-87.75005497,"tz":"America/Chicago","pop":5915976},{"name":"Bangkok","province":"Bangkok Metropolis","country":"Thailand","lat":13.74999921,"lng":100.5166447,"tz":"Asia/Bangkok","pop":5904238},{"name":"Hong Kong","province":"","country":"Hong Kong S.A.R.","lat":22.3049809,"lng":114.1850093,"tz":"Asia/Hong_Kong","pop":5878790},{"name":"Chennai","province":"Tamil Nadu","country":"India","lat":13.08998781,"lng":80.27999874,"tz":"Asia/Kolkata","pop":5745532},{"name":"Wuhan","province":"Hubei","country":"China","lat":30.58003135,"lng":114.270017,"tz":"Asia/Shanghai","pop":5713603},{"name":"Tianjin","province":"Tianjin","country":"China","lat":39.13002626,"lng":117.2000191,"tz":"Asia/Shanghai","pop":5473104},{"name":"Sydney","province":"New South Wales","country":"Australia","lat":-33.92001097,"lng":151.1851798,"tz":"Australia/Sydney","pop":5230330},{"name":"Chongqing","province":"Chongqing","country":"China","lat":29.56497703,"lng":106.5949816,"tz":"Asia/Chongqing","pop":5214014},{"name":"Bengaluru","province":"","country":"India","lat":12.97194,"lng":77.59369,"tz":"Asia/Kolkata","pop":5104047},{"name":"Baghdad","province":"Baghdad","country":"Iraq","lat":33.3386485,"lng":44.39386877,"tz":"Asia/Baghdad","pop":5054000},{"name":"Hyderabad","province":"Andhra Pradesh","country":"India","lat":17.39998313,"lng":78.47995357,"tz":"Asia/Kolkata","pop":4986908},{"name":"Paris","province":"Île-de-France","country":"France","lat":48.86669293,"lng":2.333335326,"tz":"Europe/Paris","pop":4957589},{"name":"Melbourne","province":"Victoria","country":"Australia","lat":-37.82003131,"lng":144.9750162,"tz":"Australia/Melbourne","pop":4936000},{"name":"Taipei","province":"Taipei City","country":"Taiwan","lat":25.03583333,"lng":121.5683333,"tz":"Asia/Taipei","pop":4759523},{"name":"Lagos","province":"Lagos","country":"Nigeria","lat":6.443261653,"lng":3.391531071,"tz":"Africa/Lagos","pop":4733768},{"name":"Kolkata","province":"","country":"India","lat":22.56263,"lng":88.36304,"tz":"Asia/Kolkata","pop":4631392},{"name":"Toronto","province":"Ontario","country":"Canada","lat":43.69997988,"lng":-79.42002079,"tz":"America/Toronto","pop":4573711},{"name":"Ahmedabad","province":"Dadra and Nagar Haveli","country":"India","lat":23.03005292,"lng":72.58000362,"tz":"Asia/Kolkata","pop":4547355},{"name":"Dongguan","province":"Guangdong","country":"China","lat":23.0488889,"lng":113.7447222,"tz":"Asia/Shanghai","pop":4528000},{"name":"Ho Chi Minh City","province":"Ho Chi Minh City","country":"Vietnam","lat":10.78002545,"lng":106.6950272,"tz":"Asia/Ho_Chi_Minh","pop":4390666},{"name":"Riyadh","province":"Ar Riyad","country":"Saudi Arabia","lat":24.64083315,"lng":46.77274166,"tz":"Asia/Riyadh","pop":4335481},{"name":"Chennai","province":"","country":"India","lat":13.08784,"lng":80.27847,"tz":"Asia/Kolkata","pop":4328063},{"name":"Shenzhen","province":"Guangdong","country":"China","lat":22.55237051,"lng":114.1221231,"tz":"Asia/Shanghai","pop":4291796},{"name":"Singapore","province":"","country":"Singapore","lat":1.293033466,"lng":103.8558207,"tz":"Asia/Singapore","pop":4236615},{"name":"Chittagong","province":"Chittagong","country":"Bangladesh","lat":22.32999229,"lng":91.79996741,"tz":"Asia/Dhaka","pop":4224611},{"name":"Shenyeng","province":"Liaoning","country":"China","lat":41.80497927,"lng":123.4499735,"tz":"Asia/Shanghai","pop":4149596},{"name":"Houston","province":"Texas","country":"United States of America","lat":29.81997438,"lng":-95.33997929,"tz":"America/Chicago","pop":4053287},{"name":"Chengdu","province":"Sichuan","country":"China","lat":30.67000002,"lng":104.0700195,"tz":"Asia/Chongqing","pop":4036719},{"name":"St. Petersburg","province":"City of St. Petersburg","country":"Russia","lat":59.93901451,"lng":30.31602006,"tz":"Europe/Moscow","pop":4023106},{"name":"Alexandria","province":"Al Iskandariyah","country":"Egypt","lat":31.20001935,"lng":29.94999589,"tz":"Africa/Cairo","pop":3988258},{"name":"Belo Horizonte","province":"Minas Gerais","country":"Brazil","lat":-19.91502602,"lng":-43.91500452,"tz":"America/Sao_Paulo","pop":3974112},{"name":"Pune","province":"Maharashtra","country":"India","lat":18.53001752,"lng":73.85000362,"tz":"Asia/Kolkata","pop":3803872},{"name":"Ahmedabad","province":"","country":"India","lat":23.02579,"lng":72.58727,"tz":"Asia/Kolkata","pop":3719710},{"name":"Yokohama","province":"Kanagawa","country":"Japan","lat":35.32002626,"lng":139.5800484,"tz":"Asia/Tokyo","pop":3697894},{"name":"Rangoon","province":"Yangon","country":"Myanmar","lat":16.7833541,"lng":96.16667761,"tz":"Asia/Rangoon","pop":3694910},{"name":"Xian","province":"Shaanxi","country":"China","lat":34.27502545,"lng":108.8949963,"tz":"Asia/Chongqing","pop":3617406},{"name":"Hyderabad","province":"","country":"India","lat":17.38405,"lng":78.45636,"tz":"Asia/Kolkata","pop":3597816},{"name":"Luanda","province":"Luanda","country":"Angola","lat":-8.838286114,"lng":13.23442704,"tz":"Africa/Luanda","pop":3562086},{"name":"Ankara","province":"Ankara","country":"Turkey","lat":39.92723859,"lng":32.86439164,"tz":"Europe/Istanbul","pop":3511690},{"name":"Philadelphia","province":"Pennsylvania","country":"United States of America","lat":39.99997316,"lng":-75.16999597,"tz":"America/New_York","pop":3504775},{"name":"Abidjan","province":"Lagunes","country":"Ivory Coast","lat":5.319996967,"lng":-4.04004826,"tz":"Africa/Abidjan","pop":3496198},{"name":"Busan","province":"Busan","country":"South Korea","lat":35.09505292,"lng":129.0100476,"tz":"Asia/Seoul","pop":3480000},{"name":"Harbin","province":"Heilongjiang","country":"China","lat":45.74998395,"lng":126.6499849,"tz":"Asia/Harbin","pop":3425442},{"name":"Nanjing","province":"Jiangsu","country":"China","lat":32.05001914,"lng":118.7799743,"tz":"Asia/Shanghai","pop":3383005},{"name":"Surat","province":"Dadra and Nagar Haveli","country":"India","lat":21.19998374,"lng":72.84003943,"tz":"Asia/Kolkata","pop":3368252},{"name":"Khartoum","province":"Khartoum","country":"Sudan","lat":15.58807823,"lng":32.53417924,"tz":"Africa/Khartoum","pop":3364324},{"name":"Hechi","province":"Guangxi","country":"China","lat":23.09653465,"lng":109.6091129,"tz":"Asia/Chongqing","pop":3275190},{"name":"Barcelona","province":"Cataluña","country":"Spain","lat":41.38329958,"lng":2.183370319,"tz":"Europe/Madrid","pop":3250798},{"name":"Berlin","province":"Berlin","country":"Germany","lat":52.52181866,"lng":13.40154862,"tz":"Europe/Berlin","pop":3250007},{"name":"Casablanca","province":"Grand Casablanca","country":"Morocco","lat":33.59997622,"lng":-7.616367433,"tz":"Africa/Casablanca","pop":3162955},{"name":"Kabul","province":"Kabul","country":"Afghanistan","lat":34.51669029,"lng":69.18326005,"tz":"Asia/Kabul","pop":3160266},{"name":"Kano","province":"Kano","country":"Nigeria","lat":11.99997683,"lng":8.5200378,"tz":"Africa/Lagos","pop":3140000},{"name":"Brasilia","province":"Distrito Federal","country":"Brazil","lat":-15.78334023,"lng":-47.91605229,"tz":"America/Sao_Paulo","pop":3139980},{"name":"Salvador","province":"Bahia","country":"Brazil","lat":-12.9699719,"lng":-38.47998743,"tz":"America/Bahia","pop":3081423},{"name":"Montréal","province":"Québec","country":"Canada","lat":45.49999921,"lng":-73.58329696,"tz":"America/Montreal","pop":3017278},{"name":"Dallas","province":"Texas","country":"United States of America","lat":32.82002382,"lng":-96.84001693,"tz":"America/Chicago","pop":3004852},{"name":"Kanpur","province":"Uttar Pradesh","country":"India","lat":26.4599986,"lng":80.3199963,"tz":"Asia/Kolkata","pop":2992625},{"name":"Miami","province":"Florida","country":"United States of America","lat":25.7876107,"lng":-80.22410608,"tz":"America/New_York","pop":2983947},{"name":"Fortaleza","province":"Ceará","country":"Brazil","lat":-3.750017884,"lng":-38.57998132,"tz":"America/Fortaleza","pop":2958718},{"name":"Jeddah","province":"Makkah","country":"Saudi Arabia","lat":21.51688946,"lng":39.21919755,"tz":"Asia/Riyadh","pop":2939723},{"name":"Pune","province":"","country":"India","lat":18.51957,"lng":73.85535,"tz":"Asia/Kolkata","pop":2935744},{"name":"Haora","province":"West Bengal","country":"India","lat":22.58039044,"lng":88.32994665,"tz":"Asia/Kolkata","pop":2934655},{"name":"Addis Ababa","province":"Addis Ababa","country":"Ethiopia","lat":9.033310363,"lng":38.70000443,"tz":"Africa/Addis_Ababa","pop":2928865},{"name":"Guadalajara","province":"Jalisco","country":"Mexico","lat":20.67001609,"lng":-103.3300342,"tz":"America/Mexico_City","pop":2919295},{"name":"Hanoi","province":"Thái Nguyên","country":"Vietnam","lat":21.03332725,"lng":105.8500142,"tz":"Asia/Ho_Chi_Minh","pop":2904635},{"name":"Pyongyang","province":"P'yongyang","country":"North Korea","lat":39.0194387,"lng":125.7546907,"tz":"Asia/Pyongyang","pop":2899399},{"name":"Sūrat","province":"","country":"India","lat":21.19594,"lng":72.83023,"tz":"Asia/Kolkata","pop":2894504},{"name":"Santiago","province":"Región Metropolitana de Santiago","country":"Chile","lat":-33.45001382,"lng":-70.66704085,"tz":"America/Santiago","pop":2883306},{"name":"Nairobi","province":"Nairobi","country":"Kenya","lat":-1.283346742,"lng":36.81665686,"tz":"Africa/Nairobi","pop":2880274},{"name":"Changchun","province":"Jilin","country":"China","lat":43.86500856,"lng":125.3399873,"tz":"Asia/Harbin","pop":2860211},{"name":"Cape Town","province":"Western Cape","country":"South Africa","lat":-33.92001097,"lng":18.43498816,"tz":"Africa/Johannesburg","pop":2823929},{"name":"Kanpur","province":"","country":"India","lat":26.46523,"lng":80.34975,"tz":"Asia/Kolkata","pop":2823249},{"name":"New Taipei","province":"New Taipei City","country":"Taiwan","lat":25.01277778,"lng":121.465,"tz":"Asia/Taipei","pop":2821870},{"name":"Taiyuan","province":"Shanxi","country":"China","lat":37.87501243,"lng":112.5450577,"tz":"Asia/Shanghai","pop":2817738},{"name":"Jaipur","province":"Rajasthan","country":"India","lat":26.92113324,"lng":75.80998734,"tz":"Asia/Kolkata","pop":2814379},{"name":"Dar es Salaam","province":"Dar-Es-Salaam","country":"Tanzania","lat":-6.800012595,"lng":39.26834184,"tz":"Africa/Dar_es_Salaam","pop":2814326},{"name":"Madrid","province":"Comunidad de Madrid","country":"Spain","lat":40.40002626,"lng":-3.683351686,"tz":"Europe/Madrid","pop":2808719},{"name":"Quezon City","province":"Metropolitan Manila","country":"Philippines","lat":14.6504352,"lng":121.0299662,"tz":"Asia/Manila","pop":2761720},{"name":"Johannesburg","province":"Gauteng","country":"South Africa","lat":-26.17004474,"lng":28.03000972,"tz":"Africa/Johannesburg","pop":2730735},{"name":"Durban","province":"KwaZulu-Natal","country":"South Africa","lat":-29.865013,"lng":30.98001054,"tz":"Africa/Johannesburg","pop":2729000},{"name":"Jaipur","province":"","country":"India","lat":26.91962,"lng":75.78781,"tz":"Asia/Kolkata","pop":2711758},{"name":"Nagoya","province":"Aichi","country":"Japan","lat":35.15499758,"lng":136.9149914,"tz":"Asia/Tokyo","pop":2710640},{"name":"El Giza","province":"Al Jizah","country":"Egypt","lat":30.00998863,"lng":31.19002356,"tz":"Africa/Cairo","pop":2681863},{"name":"Algiers","province":"Alger","country":"Algeria","lat":36.7630648,"lng":3.05055253,"tz":"Africa/Algiers","pop":2665832},{"name":"Medellin","province":"Antioquia","country":"Colombia","lat":6.275003274,"lng":-75.57501001,"tz":"America/Bogota","pop":2648490},{"name":"Porto Alegre","province":"Rio Grande do Sul","country":"Brazil","lat":-30.05001463,"lng":-51.20001205,"tz":"America/Sao_Paulo","pop":2644871},{"name":"Surabaya","province":"Jawa Timur","country":"Indonesia","lat":-7.249235821,"lng":112.7508333,"tz":"Asia/Jakarta","pop":2609829},{"name":"Dalian","province":"Liaoning","country":"China","lat":38.92283839,"lng":121.6298308,"tz":"Asia/Shanghai","pop":2601154},{"name":"Navi Mumbai","province":"","country":"India","lat":19.03681,"lng":73.01582,"tz":"Asia/Kolkata","pop":2600000},{"name":"Lucknow","province":"Uttar Pradesh","country":"India","lat":26.85503908,"lng":80.91499874,"tz":"Asia/Kolkata","pop":2583506},{"name":"Recife","province":"Pernambuco","country":"Brazil","lat":-8.075645326,"lng":-34.91560551,"tz":"America/Recife","pop":2564549},{"name":"Faisalabad","province":"Punjab","country":"Pakistan","lat":31.40998069,"lng":73.10999711,"tz":"Asia/Karachi","pop":2561798},{"name":"Incheon","province":"Inch'on-gwangyoksi","country":"South Korea","lat":37.47614789,"lng":126.6422334,"tz":"Asia/Seoul","pop":2550000},{"name":"Dakar","province":"Dakar","country":"Senegal","lat":14.71583173,"lng":-17.47313013,"tz":"Africa/Dakar","pop":2540200},{"name":"Boston","province":"Massachusetts","country":"United States of America","lat":42.32996014,"lng":-71.07001367,"tz":"America/New_York","pop":2528071},{"name":"Detroit","province":"Michigan","country":"United States of America","lat":42.32996014,"lng":-83.08005579,"tz":"America/Detroit","pop":2526135},{"name":"Lucknow","province":"","country":"India","lat":26.83928,"lng":80.92313,"tz":"Asia/Kolkata","pop":2472011},{"name":"Damascus","province":"Damascus","country":"Syria","lat":33.500034,"lng":36.29999589,"tz":"Asia/Damascus","pop":2466000},{"name":"Atlanta","province":"Georgia","country":"United States of America","lat":33.83001385,"lng":-84.39994938,"tz":"America/New_York","pop":2464454},{"name":"Daegu","province":"Taegu-gwangyoksi","country":"South Korea","lat":35.86678876,"lng":128.6069714,"tz":"Asia/Seoul","pop":2460000},{"name":"Izmir","province":"Izmir","country":"Turkey","lat":38.43614968,"lng":27.15179401,"tz":"Europe/Istanbul","pop":2454909},{"name":"Washington, D.C.","province":"District of Columbia","country":"United States of America","lat":38.89954938,"lng":-77.00941858,"tz":"America/New_York","pop":2445217},{"name":"Hangzhou","province":"Zhejiang","country":"China","lat":30.24997398,"lng":120.1700187,"tz":"Asia/Shanghai","pop":2442565},{"name":"Phoenix","province":"Arizona","country":"United States of America","lat":33.53997988,"lng":-112.0699917,"tz":"America/Phoenix","pop":2436023},{"name":"Zhangzhou","province":"Fujian","country":"China","lat":24.52037539,"lng":117.6700162,"tz":"Asia/Shanghai","pop":2434800},{"name":"Jinan","province":"Shandong","country":"China","lat":36.67498232,"lng":116.9950187,"tz":"Asia/Shanghai","pop":2433633},{"name":"Monterrey","province":"Nuevo León","country":"Mexico","lat":25.66999514,"lng":-100.3299848,"tz":"America/Monterrey","pop":2417437},{"name":"Guiyang","province":"Guizhou","country":"China","lat":26.58004295,"lng":106.7200386,"tz":"Asia/Chongqing","pop":2416817},{"name":"Caracas","province":"Distrito Capital","country":"Venezuela","lat":10.50099855,"lng":-66.91703719,"tz":"America/Caracas","pop":2400340},{"name":"Nagpur","province":"Maharashtra","country":"India","lat":21.16995974,"lng":79.08999385,"tz":"Asia/Kolkata","pop":2341009},{"name":"Changsha","province":"Hunan","country":"China","lat":28.19996991,"lng":112.969993,"tz":"Asia/Shanghai","pop":2338969},{"name":"Zhengzhou","province":"Henan","country":"China","lat":34.75499615,"lng":113.6650927,"tz":"Asia/Shanghai","pop":2325063},{"name":"Mashhad","province":"Razavi Khorasan","country":"Iran","lat":36.27001996,"lng":59.5699967,"tz":"Asia/Tehran","pop":2318127},{"name":"Curitiba","province":"Paraná","country":"Brazil","lat":-25.420013,"lng":-49.3199976,"tz":"America/Sao_Paulo","pop":2291430},{"name":"Omdurman","province":"Khartoum","country":"Sudan","lat":15.61668113,"lng":32.48002234,"tz":"Africa/Khartoum","pop":2289429},{"name":"Lanzhou","province":"Gansu","country":"China","lat":36.05602785,"lng":103.7920003,"tz":"Asia/Chongqing","pop":2282609},{"name":"Qingdao","province":"Shandong","country":"China","lat":36.08997927,"lng":120.3300089,"tz":"Asia/Shanghai","pop":2254123},{"name":"Guayaquil","province":"Guayas","country":"Ecuador","lat":-2.220033754,"lng":-79.92004195,"tz":"America/Guayaquil","pop":2233015},{"name":"Nagpur","province":"","country":"India","lat":21.14631,"lng":79.08491,"tz":"Asia/Kolkata","pop":2228018},{"name":"Ibadan","province":"Oyo","country":"Nigeria","lat":7.380026264,"lng":3.929982054,"tz":"Africa/Lagos","pop":2221285},{"name":"Cali","province":"Valle del Cauca","country":"Colombia","lat":3.399959126,"lng":-76.49996647,"tz":"America/Bogota","pop":2216418},{"name":"Shijianzhuang","province":"Hebei","country":"China","lat":38.05001467,"lng":114.4799784,"tz":"Asia/Shanghai","pop":2204737},{"name":"Sapporo","province":"Hokkaido","country":"Japan","lat":43.07497927,"lng":141.3400443,"tz":"Asia/Tokyo","pop":2202893},{"name":"Kyiv","province":"Kyiv","country":"Ukraine","lat":50.43336733,"lng":30.51662797,"tz":"Europe/Kyiv","pop":2185754},{"name":"Xiangtan","province":"Hunan","country":"China","lat":27.85043052,"lng":112.9000232,"tz":"Asia/Shanghai","pop":2183454},{"name":"Nanchong","province":"Sichuan","country":"China","lat":30.78043256,"lng":106.1299971,"tz":"Asia/Chongqing","pop":2174000},{"name":"Aleppo","province":"Aleppo (Halab)","country":"Syria","lat":36.22997072,"lng":37.1700203,"tz":"Asia/Damascus","pop":2170132},{"name":"Kaohsiung","province":"Kaohsiung City","country":"Taiwan","lat":22.63330711,"lng":120.2666019,"tz":"Asia/Taipei","pop":2144392},{"name":"Jilin","province":"Jilin","country":"China","lat":43.84997072,"lng":126.5500427,"tz":"Asia/Harbin","pop":2138989},{"name":"Milan","province":"Lombardia","country":"Italy","lat":45.4699752,"lng":9.20500891,"tz":"Europe/Rome","pop":2125831},{"name":"Nanchang","province":"Jiangxi","country":"China","lat":28.67999229,"lng":115.8799963,"tz":"Asia/Shanghai","pop":2110676},{"name":"Fukuoka","province":"Fukuoka","country":"Japan","lat":33.59501528,"lng":130.4100138,"tz":"Asia/Tokyo","pop":2092145},{"name":"San Francisco","province":"California","country":"United States of America","lat":37.74000775,"lng":-122.4599777,"tz":"America/Los_Angeles","pop":2091036},{"name":"Havana","province":"Ciudad de la Habana","country":"Cuba","lat":23.13195884,"lng":-82.36418217,"tz":"America/Havana","pop":2082459},{"name":"Tashkent","province":"Tashkent","country":"Uzbekistan","lat":41.31170188,"lng":69.29493282,"tz":"Asia/Tashkent","pop":2081014},{"name":"Vienna","province":"Wien","country":"Austria","lat":48.20001528,"lng":16.36663896,"tz":"Europe/Vienna","pop":2065500},{"name":"Bandung","province":"Jawa Barat","country":"Indonesia","lat":-6.950029278,"lng":107.5700126,"tz":"Asia/Jakarta","pop":2046860},{"name":"Accra","province":"Greater Accra","country":"Ghana","lat":5.550034606,"lng":-0.21671574,"tz":"Africa/Accra","pop":2042132},{"name":"Baku","province":"Baki","country":"Azerbaijan","lat":40.39527203,"lng":49.86221716,"tz":"Asia/Baku","pop":2007150},{"name":"Athens","province":"Attiki","country":"Greece","lat":37.98332623,"lng":23.73332108,"tz":"Europe/Athens","pop":1985569},{"name":"Kunming","province":"Yunnan","country":"China","lat":25.06998008,"lng":102.6799751,"tz":"Asia/Chongqing","pop":1977337},{"name":"Suzhou","province":"Anhui","country":"China","lat":33.6361111,"lng":116.9788889,"tz":"Asia/Shanghai","pop":1964000},{"name":"Bekasi","province":"Jakarta Raya","country":"Indonesia","lat":-6.217257468,"lng":106.972323,"tz":"Asia/Jakarta","pop":1949165},{"name":"San Diego","province":"California","country":"United States of America","lat":32.82002382,"lng":-117.1799899,"tz":"America/Los_Angeles","pop":1938571},{"name":"Medan","province":"Sumatera Utara","country":"Indonesia","lat":3.579973978,"lng":98.65004024,"tz":"Asia/Jakarta","pop":1932986},{"name":"Indore","province":"Madhya Pradesh","country":"India","lat":22.71505922,"lng":75.86502274,"tz":"Asia/Kolkata","pop":1931521},{"name":"Denver","province":"Colorado","country":"United States of America","lat":39.73918805,"lng":-104.984016,"tz":"America/Denver","pop":1930800},{"name":"Sanaa","province":"Amanat Al Asimah","country":"Yemen","lat":15.3547333,"lng":44.20659338,"tz":"Asia/Aden","pop":1921927},{"name":"Campinas","province":"São Paulo","country":"Brazil","lat":-22.90001178,"lng":-47.10002975,"tz":"America/Sao_Paulo","pop":1911277},{"name":"Fuzhou","province":"Fujian","country":"China","lat":26.07999595,"lng":119.3000459,"tz":"Asia/Shanghai","pop":1892860},{"name":"Patna","province":"Bihar","country":"India","lat":25.62495913,"lng":85.13003861,"tz":"Asia/Kolkata","pop":1878960},{"name":"Zibo","province":"Shandong","country":"China","lat":36.79998761,"lng":118.049993,"tz":"Asia/Shanghai","pop":1865385},{"name":"Saidu","province":"N.W.F.P.","country":"Pakistan","lat":34.75003522,"lng":72.34999182,"tz":"Asia/Karachi","pop":1860310},{"name":"Santa Cruz","province":"Santa Cruz","country":"Bolivia","lat":-17.75391762,"lng":-63.22599634,"tz":"America/La_Paz","pop":1859531},{"name":"Bucharest","province":"Bucharest","country":"Romania","lat":44.4333718,"lng":26.09994665,"tz":"Europe/Bucharest","pop":1842097},{"name":"Indore","province":"","country":"India","lat":22.71792,"lng":75.8333,"tz":"Asia/Kolkata","pop":1837041},{"name":"Taichung","province":"Taichung City","country":"Taiwan","lat":24.15207745,"lng":120.681667,"tz":"Asia/Taipei","pop":1835024},{"name":"Urumqi","province":"Xinjiang Uygur","country":"China","lat":43.80501223,"lng":87.57500565,"tz":"Asia/Urumqi","pop":1829613},{"name":"Seattle","province":"Washington","country":"United States of America","lat":47.57000205,"lng":-122.339985,"tz":"America/Los_Angeles","pop":1821685},{"name":"Rawalpindi","province":"Punjab","country":"Pakistan","lat":33.59997622,"lng":73.04002722,"tz":"Asia/Karachi","pop":1800551},{"name":"Benoni","province":"Gauteng","country":"South Africa","lat":-26.14958087,"lng":28.32993974,"tz":"Africa/Johannesburg","pop":1795672},{"name":"Puebla","province":"Puebla","country":"Mexico","lat":19.04995994,"lng":-98.20003727,"tz":"America/Mexico_City","pop":1793550},{"name":"Belem","province":"Pará","country":"Brazil","lat":-1.450003236,"lng":-48.48002303,"tz":"America/Belem","pop":1787369},{"name":"Frankfurt","province":"Hessen","country":"Germany","lat":50.09997683,"lng":8.67501542,"tz":"Europe/Berlin","pop":1787332},{"name":"Beirut","province":"Beirut","country":"Lebanon","lat":33.87197512,"lng":35.50970821,"tz":"Asia/Beirut","pop":1779063},{"name":"Stuttgart","province":"Baden-Württemberg","country":"Germany","lat":48.77997988,"lng":9.199996296,"tz":"Europe/Berlin","pop":1775644},{"name":"Shuyang","province":"Jiangsu","country":"China","lat":34.12986635,"lng":118.7733597,"tz":"Asia/Shanghai","pop":1770000},{"name":"Maracaibo","province":"Zulia","country":"Venezuela","lat":10.72997683,"lng":-71.65997766,"tz":"America/Caracas","pop":1764650},{"name":"Hamburg","province":"Hamburg","country":"Germany","lat":53.55002464,"lng":9.999999144,"tz":"Europe/Berlin","pop":1748059},{"name":"Tel Aviv-Yafo","province":"Tel Aviv","country":"Israel","lat":32.07999147,"lng":34.77001176,"tz":"Asia/Jerusalem","pop":1745179},{"name":"Tangshan","province":"Hebei","country":"China","lat":39.62433718,"lng":118.194377,"tz":"Asia/Shanghai","pop":1737975},{"name":"Hefei","province":"Anhui","country":"China","lat":31.85003135,"lng":117.2800142,"tz":"Asia/Shanghai","pop":1711952},{"name":"Warsaw","province":"Masovian","country":"Poland","lat":52.25000063,"lng":20.99999955,"tz":"Europe/Warsaw","pop":1704570},{"name":"Minsk","province":"Minsk","country":"Belarus","lat":53.89997744,"lng":27.56662716,"tz":"Europe/Minsk","pop":1691069},{"name":"Rome","province":"Lazio","country":"Italy","lat":41.89595563,"lng":12.48325842,"tz":"Europe/Rome","pop":1687226},{"name":"Rabat","province":"Rabat - Salé - Zemmour - Zaer","country":"Morocco","lat":34.02529909,"lng":-6.83613082,"tz":"Africa/Casablanca","pop":1680377},{"name":"Wanzhou","province":"Chongqing","country":"China","lat":30.81999086,"lng":108.4000394,"tz":"Asia/Chongqing","pop":1680000},{"name":"Budapest","province":"Budapest","country":"Hungary","lat":47.50000633,"lng":19.08332068,"tz":"Europe/Budapest","pop":1679000},{"name":"Lisbon","province":"Lisboa","country":"Portugal","lat":38.72272288,"lng":-9.144866305,"tz":"Europe/Lisbon","pop":1664901},{"name":"Bhopal","province":"Madhya Pradesh","country":"India","lat":23.24998781,"lng":77.40999304,"tz":"Asia/Kolkata","pop":1663457},{"name":"Xuzhou","province":"Jiangsu","country":"China","lat":34.28001223,"lng":117.1800203,"tz":"Asia/Shanghai","pop":1645097},{"name":"Sendai","province":"Miyagi","country":"Japan","lat":38.28710614,"lng":141.0217175,"tz":"Asia/Tokyo","pop":1643781},{"name":"Manaus","province":"Amazonas","country":"Brazil","lat":-3.100031719,"lng":-60.00001754,"tz":"America/Manaus","pop":1636622},{"name":"Birmingham","province":"West Midlands","country":"United Kingdom","lat":52.47497398,"lng":-1.919996787,"tz":"Europe/London","pop":1634667},{"name":"Kyoto","province":"Kyoto","country":"Japan","lat":35.02999229,"lng":135.7499979,"tz":"Asia/Tokyo","pop":1632320},{"name":"Taian","province":"Shandong","country":"China","lat":36.19999839,"lng":117.1200756,"tz":"Asia/Shanghai","pop":1629000},{"name":"Douala","province":"Littoral","country":"Cameroon","lat":4.060409769,"lng":9.709991006,"tz":"Africa/Douala","pop":1622041},{"name":"Naples","province":"Campania","country":"Italy","lat":40.84002525,"lng":14.24501135,"tz":"Europe/Rome","pop":1619486},{"name":"Port-au-Prince","province":"Ouest","country":"Haiti","lat":18.5410246,"lng":-72.33603459,"tz":"America/Port-au-Prince","pop":1616371},{"name":"Irvine","province":"California","country":"United States of America","lat":33.68041058,"lng":-117.8299502,"tz":"America/Los_Angeles","pop":1611304},{"name":"George Town","province":"Pulau Pinang","country":"Malaysia","lat":5.413613156,"lng":100.3293679,"tz":"Asia/Kuala_Lumpur","pop":1610101},{"name":"Wenzhou","province":"Zhejiang","country":"China","lat":28.0199809,"lng":120.6500927,"tz":"Asia/Shanghai","pop":1607836},{"name":"Haikou","province":"Hainan","country":"China","lat":20.05000226,"lng":110.3200256,"tz":"Asia/Chongqing","pop":1606809},{"name":"Patna","province":"","country":"India","lat":25.59408,"lng":85.13563,"tz":"Asia/Kolkata","pop":1599920},{"name":"Bhopal","province":"","country":"India","lat":23.25469,"lng":77.40289,"tz":"Asia/Kolkata","pop":1599914},{"name":"Ludhiana","province":"Punjab","country":"India","lat":30.92776206,"lng":75.87225745,"tz":"Asia/Kolkata","pop":1597184},{"name":"Goiania","province":"Goiás","country":"Brazil","lat":-16.72002724,"lng":-49.30002466,"tz":"America/Sao_Paulo","pop":1596598},{"name":"Palembang","province":"Sumatera Selatan","country":"Indonesia","lat":-2.980039043,"lng":104.7500297,"tz":"Asia/Jakarta","pop":1595250},{"name":"Hiroshima","province":"Hiroshima","country":"Japan","lat":34.3878351,"lng":132.442913,"tz":"Asia/Tokyo","pop":1594421},{"name":"Vadodara","province":"Dadra and Nagar Haveli","country":"India","lat":22.31001935,"lng":73.18001868,"tz":"Asia/Kolkata","pop":1582738},{"name":"Kalyan","province":"Maharashtra","country":"India","lat":19.25023195,"lng":73.16017493,"tz":"Asia/Kolkata","pop":1576614},{"name":"Isfahan","province":"Esfahan","country":"Iran","lat":32.70000531,"lng":51.7000378,"tz":"Asia/Tehran","pop":1572883},{"name":"Tunis","province":"Tunis","country":"Tunisia","lat":36.80277814,"lng":10.1796781,"tz":"Africa/Tunis","pop":1570477},{"name":"Valencia","province":"Carabobo","country":"Venezuela","lat":10.22998151,"lng":-67.9800214,"tz":"America/Caracas","pop":1569527},{"name":"Harare","province":"Harare","country":"Zimbabwe","lat":-17.81778969,"lng":31.04470943,"tz":"Africa/Harare","pop":1557407},{"name":"Luoyang","province":"Henan","country":"China","lat":34.67998781,"lng":112.4700752,"tz":"Asia/Shanghai","pop":1552791},{"name":"Quito","province":"Pichincha","country":"Ecuador","lat":-0.214988181,"lng":-78.50005111,"tz":"America/Guayaquil","pop":1550407},{"name":"Xiamen","province":"Fujian","country":"China","lat":24.44999208,"lng":118.080017,"tz":"Asia/Shanghai","pop":1548669},{"name":"Ludhiāna","province":"","country":"India","lat":30.91204,"lng":75.85379,"tz":"Asia/Kolkata","pop":1545368},{"name":"Antananarivo","province":"Antananarivo","country":"Madagascar","lat":-18.91663735,"lng":47.5166239,"tz":"Indian/Antananarivo","pop":1544217},{"name":"Luzhou","province":"Sichuan","country":"China","lat":28.87998008,"lng":105.380017,"tz":"Asia/Chongqing","pop":1537000},{"name":"Pittsburgh","province":"Pennsylvania","country":"United States of America","lat":40.4299986,"lng":-79.99998539,"tz":"America/New_York","pop":1535268},{"name":"Kobe","province":"Hyogo","country":"Japan","lat":34.67998781,"lng":135.1699816,"tz":"Asia/Tokyo","pop":1528478},{"name":"Katowice","province":"Silesian","country":"Poland","lat":50.26038047,"lng":19.02001705,"tz":"Europe/Warsaw","pop":1527362},{"name":"Barranquilla","province":"Atlántico","country":"Colombia","lat":10.95998863,"lng":-74.79996688,"tz":"America/Bogota","pop":1521246},{"name":"Agra","province":"Uttar Pradesh","country":"India","lat":27.17042035,"lng":78.01502071,"tz":"Asia/Kolkata","pop":1511028},{"name":"Suzhou","province":"Jiangsu","country":"China","lat":31.30047833,"lng":120.620017,"tz":"Asia/Shanghai","pop":1496546},{"name":"Handan","province":"Hebei","country":"China","lat":36.5799752,"lng":114.4799784,"tz":"Asia/Shanghai","pop":1494659},{"name":"Conakry","province":"Conakry","country":"Guinea","lat":9.531522846,"lng":-13.68023503,"tz":"Africa/Conakry","pop":1494000},{"name":"Minneapolis","province":"Minnesota","country":"United States of America","lat":44.97997927,"lng":-93.25178634,"tz":"America/Chicago","pop":1491887},{"name":"Nanning","province":"Guangxi","country":"China","lat":22.81998822,"lng":108.3200443,"tz":"Asia/Chongqing","pop":1485394},{"name":"Multan","province":"Punjab","country":"Pakistan","lat":30.19997703,"lng":71.45500769,"tz":"Asia/Karachi","pop":1479615},{"name":"Santiago","province":"Santiago","country":"Dominican Republic","lat":19.50000999,"lng":-70.67001225,"tz":"America/Santo_Domingo","pop":1471008},{"name":"Kumasi","province":"Ashanti","country":"Ghana","lat":6.689990864,"lng":-1.630014487,"tz":"Africa/Accra","pop":1468576},{"name":"Shantou","province":"Guangdong","country":"China","lat":23.37000633,"lng":116.6700256,"tz":"Asia/Shanghai","pop":1467487},{"name":"Phnom Penh","province":"Phnom Penh","country":"Cambodia","lat":11.55003013,"lng":104.9166345,"tz":"Asia/Phnom_Penh","pop":1466000},{"name":"Tijuana","province":"Baja California","country":"Mexico","lat":32.50001752,"lng":-117.079996,"tz":"America/Tijuana","pop":1464729},{"name":"Datong","province":"Shanxi","country":"China","lat":40.08001996,"lng":113.2999987,"tz":"Asia/Shanghai","pop":1462839},{"name":"Vancouver","province":"British Columbia","country":"Canada","lat":49.27341658,"lng":-123.1216442,"tz":"America/Vancouver","pop":1458415},{"name":"Daejeon","province":"Daejeon","country":"South Korea","lat":36.33554567,"lng":127.425028,"tz":"Asia/Seoul","pop":1458165},{"name":"Gujranwala","province":"Punjab","country":"Pakistan","lat":32.16042584,"lng":74.18502193,"tz":"Asia/Karachi","pop":1448736},{"name":"Kuala Lumpur","province":"Selangor","country":"Malaysia","lat":3.166665872,"lng":101.6999833,"tz":"Asia/Kuala_Lumpur","pop":1448000},{"name":"Khulna","province":"Khulna","country":"Bangladesh","lat":22.839987,"lng":89.56000077,"tz":"Asia/Dhaka","pop":1447670},{"name":"San Juan","province":"","country":"Puerto Rico","lat":18.44002301,"lng":-66.12997929,"tz":"America/Puerto_Rico","pop":1437116},{"name":"Liuzhou","province":"Guangxi","country":"China","lat":24.28000246,"lng":109.2500134,"tz":"Asia/Chongqing","pop":1436031},{"name":"Tirunelveli","province":"","country":"India","lat":8.72742,"lng":77.6838,"tz":"Asia/Kolkata","pop":1435844},{"name":"Fushun","province":"Liaoning","country":"China","lat":41.86538902,"lng":123.8699996,"tz":"Asia/Shanghai","pop":1435323},{"name":"Baltimore","province":"Maryland","country":"United States of America","lat":39.29999005,"lng":-76.61998499,"tz":"America/New_York","pop":1432946},{"name":"Agra","province":"","country":"India","lat":27.18333,"lng":78.01667,"tz":"Asia/Kolkata","pop":1430055},{"name":"Wuxi","province":"Jiangsu","country":"China","lat":31.57999615,"lng":120.2999849,"tz":"Asia/Shanghai","pop":1428824},{"name":"Gwangju","province":"Kwangju-gwangyoksi","country":"South Korea","lat":35.1709656,"lng":126.9104341,"tz":"Asia/Seoul","pop":1428469},{"name":"Bursa","province":"Bursa","country":"Turkey","lat":40.1999868,"lng":29.06999792,"tz":"Europe/Istanbul","pop":1425545},{"name":"Suining","province":"Sichuan","country":"China","lat":30.5333333,"lng":105.5333333,"tz":"Asia/Chongqing","pop":1425000},{"name":"Karaj","province":"Tehran","country":"Iran","lat":35.8003587,"lng":50.97000484,"tz":"Asia/Tehran","pop":1423000},{"name":"Hyderabad","province":"Sind","country":"Pakistan","lat":25.379987,"lng":68.37498897,"tz":"Asia/Karachi","pop":1422665},{"name":"Anshan","province":"Liaoning","country":"China","lat":41.11502138,"lng":122.9400305,"tz":"Asia/Shanghai","pop":1419138},{"name":"Yantai","province":"Shandong","country":"China","lat":37.53040814,"lng":121.4000211,"tz":"Asia/Shanghai","pop":1417666},{"name":"Xinyang","province":"Henan","country":"China","lat":32.130376,"lng":114.0699776,"tz":"Asia/Shanghai","pop":1411944},{"name":"Ad Damman","province":"Ash Sharqiyah","country":"Saudi Arabia","lat":26.42819175,"lng":50.09967037,"tz":"Asia/Riyadh","pop":1411656},{"name":"Vadodara","province":"","country":"India","lat":22.29941,"lng":73.20812,"tz":"Asia/Kolkata","pop":1409476},{"name":"Luan","province":"Anhui","country":"China","lat":31.75034751,"lng":116.4800114,"tz":"Asia/Shanghai","pop":1408228},{"name":"Bamako","province":"Bamako","country":"Mali","lat":12.65001467,"lng":-8.000039105,"tz":"Africa/Bamako","pop":1395641},{"name":"Faridabad","province":"Haryana","country":"India","lat":28.4333333,"lng":77.3166667,"tz":"Asia/Kolkata","pop":1394000},{"name":"Brisbane","province":"Queensland","country":"Australia","lat":-27.45503091,"lng":153.0350927,"tz":"Australia/Brisbane","pop":1393177},{"name":"Kampala","province":"Kampala","country":"Uganda","lat":0.316658955,"lng":32.58332353,"tz":"Africa/Kampala","pop":1386595},{"name":"Nasik","province":"Maharashtra","country":"India","lat":20.00041872,"lng":73.77998205,"tz":"Asia/Kolkata","pop":1381249},{"name":"Brussels","province":"Brussels","country":"Belgium","lat":50.83331708,"lng":4.333316608,"tz":"Europe/Brussels","pop":1381011},{"name":"Córdoba","province":"Córdoba","country":"Argentina","lat":-31.39995807,"lng":-64.18229456,"tz":"America/Argentina/Cordoba","pop":1374468},{"name":"Kawasaki","province":"Kanagawa","country":"Japan","lat":35.52998761,"lng":139.705002,"tz":"Asia/Tokyo","pop":1372026},{"name":"Jinxi","province":"Liaoning","country":"China","lat":40.7503408,"lng":120.8299784,"tz":"Asia/Shanghai","pop":1369624},{"name":"Najafgarh","province":"","country":"India","lat":28.60922,"lng":76.97982,"tz":"Asia/Kolkata","pop":1365000},{"name":"San Antonio","province":"Texas","country":"United States of America","lat":29.48733319,"lng":-98.50730534,"tz":"America/Chicago","pop":1364905},{"name":"Makkah","province":"Makkah","country":"Saudi Arabia","lat":21.43002138,"lng":39.82003943,"tz":"Asia/Riyadh","pop":1354312},{"name":"Ciudad Juárez","province":"Chihuahua","country":"Mexico","lat":31.69037701,"lng":-106.4900481,"tz":"America/Ojinaga","pop":1343000},{"name":"Semarang","province":"Jawa Tengah","country":"Indonesia","lat":-6.966617412,"lng":110.4200195,"tz":"Asia/Jakarta","pop":1342042},{"name":"Kharkiv","province":"Kharkiv","country":"Ukraine","lat":49.99998293,"lng":36.25002478,"tz":"Europe/Kyiv","pop":1338064},{"name":"Pretoria","province":"Gauteng","country":"South Africa","lat":-25.70692055,"lng":28.22942908,"tz":"Africa/Johannesburg","pop":1338000},{"name":"Mannheim","province":"Baden-Württemberg","country":"Germany","lat":49.50037518,"lng":8.470015013,"tz":"Europe/Berlin","pop":1337587},{"name":"Yaounde","province":"Centre","country":"Cameroon","lat":3.866700662,"lng":11.51665076,"tz":"Africa/Douala","pop":1335794},{"name":"Asansol","province":"West Bengal","country":"India","lat":23.6833333,"lng":86.9833333,"tz":"Asia/Kolkata","pop":1328000},{"name":"Coimbatore","province":"Tamil Nadu","country":"India","lat":10.99996035,"lng":76.95002112,"tz":"Asia/Kolkata","pop":1327912},{"name":"Gorakhpur","province":"","country":"India","lat":29.44768,"lng":75.67206,"tz":"Asia/Kolkata","pop":1324570},{"name":"Ningbo","province":"Zhejiang","country":"China","lat":29.87997072,"lng":121.5500378,"tz":"Asia/Shanghai","pop":1321434},{"name":"Tampa","province":"Florida","country":"United States of America","lat":27.94698793,"lng":-82.45862085,"tz":"America/New_York","pop":1319233},{"name":"Tainan","province":"Tainan City","country":"Taiwan","lat":23.00000307,"lng":120.2000427,"tz":"Asia/Taipei","pop":1319156},{"name":"Maputo","province":"Maputo","country":"Mozambique","lat":-25.95527749,"lng":32.58916296,"tz":"Africa/Maputo","pop":1318807},{"name":"Manchester","province":"Manchester","country":"United Kingdom","lat":53.50041526,"lng":-2.247987103,"tz":"Europe/London","pop":1312758},{"name":"Meerut","province":"Uttar Pradesh","country":"India","lat":29.00041201,"lng":77.70000118,"tz":"Asia/Kolkata","pop":1310592},{"name":"Davao","province":"Davao Del Sur","country":"Philippines","lat":7.110016906,"lng":125.6299955,"tz":"Asia/Manila","pop":1307252},{"name":"Tabriz","province":"East Azarbaijan","country":"Iran","lat":38.08629152,"lng":46.30124589,"tz":"Asia/Tehran","pop":1304713},{"name":"Leon","province":"Guanajuato","country":"Mexico","lat":21.1499868,"lng":-101.7000304,"tz":"America/Mexico_City","pop":1301313},{"name":"Lusaka","province":"Lusaka","country":"Zambia","lat":-15.41664427,"lng":28.28332759,"tz":"Africa/Lusaka","pop":1297720},{"name":"Vishakhapatnam","province":"Andhra Pradesh","country":"India","lat":17.73001467,"lng":83.30498205,"tz":"Asia/Kolkata","pop":1296089},{"name":"Nashik","province":"","country":"India","lat":19.99727,"lng":73.79096,"tz":"Asia/Kolkata","pop":1289497},{"name":"Haiphong","province":"Quảng Ninh","country":"Vietnam","lat":20.83000633,"lng":106.6800927,"tz":"Asia/Ho_Chi_Minh","pop":1285848},{"name":"Pimpri","province":"","country":"India","lat":18.62292,"lng":73.80696,"tz":"Asia/Kolkata","pop":1284606},{"name":"San Jose","province":"California","country":"United States of America","lat":37.29998293,"lng":-121.8499891,"tz":"America/Los_Angeles","pop":1281472},{"name":"Yekaterinburg","province":"Sverdlovsk","country":"Russia","lat":56.85002993,"lng":60.59995967,"tz":"Asia/Yekaterinburg","pop":1270488},{"name":"Ghaziabad","province":"Uttar Pradesh","country":"India","lat":28.66038108,"lng":77.40839107,"tz":"Asia/Kolkata","pop":1270096},{"name":"Munich","province":"Bayern","country":"Germany","lat":48.12994204,"lng":11.57499345,"tz":"Europe/Berlin","pop":1267696},{"name":"Kalyān","province":"","country":"India","lat":19.2437,"lng":73.13554,"tz":"Asia/Kolkata","pop":1262255},{"name":"Ujungpandang","province":"Sulawesi Selatan","country":"Indonesia","lat":-5.139958884,"lng":119.4320275,"tz":"Asia/Makassar","pop":1262000},{"name":"Qiqihar","province":"Heilongjiang","country":"China","lat":47.34497703,"lng":123.9899922,"tz":"Asia/Harbin","pop":1261682},{"name":"Thāne","province":"","country":"India","lat":19.19704,"lng":72.96355,"tz":"Asia/Kolkata","pop":1261517},{"name":"Peshawar","province":"N.W.F.P.","country":"Pakistan","lat":34.00501609,"lng":71.53500281,"tz":"Asia/Karachi","pop":1260887},{"name":"St. Louis","province":"Missouri","country":"United States of America","lat":38.63501772,"lng":-90.23998051,"tz":"America/Chicago","pop":1259958},{"name":"Brazzaville","province":"Pool","country":"Congo (Brazzaville)","lat":-4.259185772,"lng":15.28468949,"tz":"Africa/Brazzaville","pop":1259445},{"name":"Stockholm","province":"Stockholm","country":"Sweden","lat":59.35075995,"lng":18.09733473,"tz":"Europe/Stockholm","pop":1258655},{"name":"Turin","province":"Piemonte","country":"Italy","lat":45.07038719,"lng":7.669960489,"tz":"Europe/Rome","pop":1258632},{"name":"Varanasi","province":"Uttar Pradesh","country":"India","lat":25.32999005,"lng":83.00003943,"tz":"Asia/Kolkata","pop":1258202},{"name":"Dubai","province":"Dubay","country":"United Arab Emirates","lat":25.22999615,"lng":55.27997432,"tz":"Asia/Dubai","pop":1258174},{"name":"Hohhot","province":"Nei Mongol","country":"China","lat":40.81997479,"lng":111.6599955,"tz":"Asia/Chongqing","pop":1250239},{"name":"Long Beach","province":"California","country":"United States of America","lat":33.78696739,"lng":-118.1580439,"tz":"America/Los_Angeles","pop":1249196},{"name":"Nizhny Novgorod","province":"Nizhegorod","country":"Russia","lat":56.33300722,"lng":44.00009436,"tz":"Europe/Moscow","pop":1246463},{"name":"Adana","province":"Adana","country":"Turkey","lat":36.99498863,"lng":35.32000403,"tz":"Europe/Istanbul","pop":1245445},{"name":"Shiraz","province":"Fars","country":"Iran","lat":29.62996014,"lng":52.57001054,"tz":"Asia/Tehran","pop":1240000},{"name":"Huainan","province":"Anhui","country":"China","lat":32.62998374,"lng":116.9799808,"tz":"Asia/Shanghai","pop":1239328},{"name":"Baotou","province":"Nei Mongol","country":"China","lat":40.65220725,"lng":109.8220198,"tz":"Asia/Chongqing","pop":1229665},{"name":"Mosul","province":"Ninawa","country":"Iraq","lat":36.34500246,"lng":43.14500443,"tz":"Asia/Baghdad","pop":1228467},{"name":"Meerut","province":"","country":"India","lat":28.98002,"lng":77.70636,"tz":"Asia/Kolkata","pop":1223184},{"name":"Nowrangapur","province":"","country":"India","lat":19.23114,"lng":82.54826,"tz":"Asia/Kolkata","pop":1220946},{"name":"Faridabad","province":"","country":"India","lat":28.41124,"lng":77.31316,"tz":"Asia/Kolkata","pop":1220229},{"name":"Maoming","province":"Guangdong","country":"China","lat":21.92040489,"lng":110.8700179,"tz":"Asia/Urumqi","pop":1217715},{"name":"Ganzhou","province":"Jiangxi","country":"China","lat":25.91997988,"lng":114.9500272,"tz":"Asia/Shanghai","pop":1216135},{"name":"Novosibirsk","province":"Novosibirsk","country":"Russia","lat":55.02996014,"lng":82.96004187,"tz":"Asia/Novosibirsk","pop":1213101},{"name":"Tripoli","province":"Tajura' wa an Nawahi al Arba","country":"Libya","lat":32.89250002,"lng":13.18001176,"tz":"Africa/Tripoli","pop":1209199},{"name":"Portland","province":"Oregon","country":"United States of America","lat":45.52002382,"lng":-122.6799901,"tz":"America/Los_Angeles","pop":1207757},{"name":"Perth","province":"Western Australia","country":"Australia","lat":-31.95501463,"lng":115.8399987,"tz":"Australia/Perth","pop":1206108},{"name":"La Paz","province":"La Paz","country":"Bolivia","lat":-16.49797361,"lng":-68.14998519,"tz":"America/La_Paz","pop":1201400},{"name":"Ghāziābād","province":"","country":"India","lat":28.66535,"lng":77.43915,"tz":"Asia/Kolkata","pop":1199191},{"name":"Dombivli","province":"","country":"India","lat":19.21667,"lng":73.08333,"tz":"Asia/Kolkata","pop":1193000},{"name":"Kaduna","province":"Kaduna","country":"Nigeria","lat":10.52001548,"lng":7.440000365,"tz":"Africa/Lagos","pop":1191297},{"name":"Rajkot","province":"Dadra and Nagar Haveli","country":"India","lat":22.31001935,"lng":70.80000891,"tz":"Asia/Kolkata","pop":1179941},{"name":"Rājkot","province":"","country":"India","lat":22.29161,"lng":70.79322,"tz":"Asia/Kolkata","pop":1177362},{"name":"Linyi","province":"Shandong","country":"China","lat":35.07998924,"lng":118.329976,"tz":"Asia/Shanghai","pop":1176335},{"name":"Cilacap","province":"Jawa Tengah","country":"Indonesia","lat":-7.718819561,"lng":109.0154024,"tz":"Asia/Jakarta","pop":1174964},{"name":"Cleveland","province":"Ohio","country":"United States of America","lat":41.4699868,"lng":-81.69499821,"tz":"America/New_York","pop":1169757},{"name":"Mandalay","province":"Mandalay","country":"Myanmar","lat":21.96998842,"lng":96.08502885,"tz":"Asia/Rangoon","pop":1167000},{"name":"Varanasi","province":"","country":"India","lat":25.31668,"lng":83.01041,"tz":"Asia/Kolkata","pop":1164404},{"name":"Zaozhuang","province":"Shandong","country":"China","lat":34.88000144,"lng":117.5700223,"tz":"Asia/Shanghai","pop":1164333},{"name":"Essen","province":"Nordrhein-Westfalen","country":"Germany","lat":51.44999778,"lng":7.016615355,"tz":"Europe/Berlin","pop":1157802},{"name":"Jabalpur","province":"Madhya Pradesh","country":"India","lat":23.17505699,"lng":79.95505733,"tz":"Asia/Kolkata","pop":1157584},{"name":"Amritsar","province":"Punjab","country":"India","lat":31.63999249,"lng":74.86999304,"tz":"Asia/Kolkata","pop":1152225},{"name":"Las Vegas","province":"Nevada","country":"United States of America","lat":36.20999778,"lng":-115.2200061,"tz":"America/Los_Angeles","pop":1150717},{"name":"Changzhou","province":"Jiangsu","country":"China","lat":31.77998395,"lng":119.9699792,"tz":"Asia/Shanghai","pop":1138009},{"name":"Prayagraj","province":"Uttar Pradesh","country":"India","lat":25.45499534,"lng":81.84000688,"tz":"Asia/Kolkata","pop":1137219},{"name":"Xianyang","province":"Shaanxi","country":"China","lat":34.3455556,"lng":108.7147222,"tz":"Asia/Chongqing","pop":1126000},{"name":"Lubumbashi","province":"Katanga","country":"Congo (Kinshasa)","lat":-11.6800248,"lng":27.48001745,"tz":"Africa/Lubumbashi","pop":1114317},{"name":"Zhanjiang","province":"Guangdong","country":"China","lat":21.19998374,"lng":110.3800219,"tz":"Asia/Urumqi","pop":1113895},{"name":"Indianapolis","province":"Indiana","country":"United States of America","lat":39.74998842,"lng":-86.17004806,"tz":"America/Indiana/Indianapolis","pop":1104642},{"name":"Fort Lauderdale","province":"Florida","country":"United States of America","lat":26.13606488,"lng":-80.14178552,"tz":"America/New_York","pop":1103782},{"name":"Madurai","province":"Tamil Nadu","country":"India","lat":9.920026264,"lng":78.12002722,"tz":"Asia/Kolkata","pop":1101954},{"name":"Lome","province":"Maritime","country":"Togo","lat":6.131937072,"lng":1.222757119,"tz":"Africa/Lome","pop":1100850},{"name":"Belgrade","province":"Grad Beograd","country":"Serbia","lat":44.81864545,"lng":20.46799068,"tz":"Europe/Belgrade","pop":1099000},{"name":"Nanyang","province":"Henan","country":"China","lat":33.00040041,"lng":112.5300199,"tz":"Asia/Shanghai","pop":1097766},{"name":"Yerevan","province":"Erevan","country":"Armenia","lat":40.18115074,"lng":44.51355139,"tz":"Asia/Yerevan","pop":1097743},{"name":"Marseille","province":"Provence-Alpes-Côte-d'Azur","country":"France","lat":43.28997906,"lng":5.37501013,"tz":"Europe/Paris","pop":1097406},{"name":"Bhilai","province":"Chhattisgarh","country":"India","lat":21.2166667,"lng":81.4333333,"tz":"Asia/Kolkata","pop":1097000},{"name":"Almaty","province":"Almaty","country":"Kazakhstan","lat":43.32498985,"lng":76.91503617,"tz":"Asia/Almaty","pop":1096256},{"name":"Rosario","province":"Santa Fe","country":"Argentina","lat":-32.95112954,"lng":-60.66630762,"tz":"America/Argentina/Cordoba","pop":1094785},{"name":"Amritsar","province":"","country":"India","lat":31.62234,"lng":74.87534,"tz":"Asia/Kolkata","pop":1092450},{"name":"Ft. Worth","province":"Texas","country":"United States of America","lat":32.73997703,"lng":-97.34003809,"tz":"America/Chicago","pop":1090830},{"name":"Doha","province":"Ad Dawhah","country":"Qatar","lat":25.28655601,"lng":51.53296789,"tz":"Asia/Qatar","pop":1090655},{"name":"Omsk","province":"Omsk","country":"Russia","lat":54.98998842,"lng":73.39995357,"tz":"Asia/Omsk","pop":1089202},{"name":"København","province":"Hovedstaden","country":"Denmark","lat":55.67856419,"lng":12.56348575,"tz":"Europe/Copenhagen","pop":1085000},{"name":"Mbuji-Mayi","province":"Kasaï-Oriental","country":"Congo (Kinshasa)","lat":-6.150026429,"lng":23.59999589,"tz":"Africa/Lubumbashi","pop":1084881},{"name":"Changwon","province":"Gyeongsangnam-do","country":"South Korea","lat":35.21910219,"lng":128.583562,"tz":"Asia/Seoul","pop":1081499},{"name":"Santo Domingo","province":"Distrito Nacional","country":"Dominican Republic","lat":18.47007285,"lng":-69.90008508,"tz":"America/Santo_Domingo","pop":1078437},{"name":"Suwon","province":"Gyeonggi-do","country":"South Korea","lat":37.25778912,"lng":127.0108931,"tz":"Asia/Seoul","pop":1078000},{"name":"Allahābād","province":"","country":"India","lat":25.44478,"lng":81.84322,"tz":"Asia/Kolkata","pop":1073438},{"name":"Chhatrapati Sambhajinagar","province":"Maharashtra","country":"India","lat":19.89569643,"lng":75.32030147,"tz":"Asia/Kolkata","pop":1064721},{"name":"Visakhapatnam","province":"","country":"India","lat":17.68009,"lng":83.20161,"tz":"Asia/Kolkata","pop":1063178},{"name":"Kochi","province":"Kerala","country":"India","lat":10.01500755,"lng":76.22391557,"tz":"Asia/Kolkata","pop":1061848},{"name":"Kuwait","province":"Al Kuwayt","country":"Kuwait","lat":29.36971763,"lng":47.97830115,"tz":"Asia/Kuwait","pop":1061532},{"name":"Santos","province":"São Paulo","country":"Brazil","lat":-23.95372393,"lng":-46.33294266,"tz":"America/Sao_Paulo","pop":1060202},{"name":"Amman","province":"Amman","country":"Jordan","lat":31.95002525,"lng":35.93329993,"tz":"Asia/Amman","pop":1060000},{"name":"Srinagar","province":"Jammu and Kashmir","country":"India","lat":34.09997154,"lng":74.81500932,"tz":"Asia/Kolkata","pop":1057929},{"name":"Tbilisi","province":"Tbilisi","country":"Georgia","lat":41.72500999,"lng":44.79079545,"tz":"Asia/Tbilisi","pop":1052629},{"name":"Baoding","province":"Hebei","country":"China","lat":38.87042971,"lng":115.4800207,"tz":"Asia/Shanghai","pop":1051326},{"name":"Sacramento","province":"California","country":"United States of America","lat":38.57502138,"lng":-121.4700381,"tz":"America/Los_Angeles","pop":1035949},{"name":"Teni","province":"","country":"India","lat":10.01115,"lng":77.47772,"tz":"Asia/Kolkata","pop":1034724},{"name":"Warangal","province":"Andhra Pradesh","country":"India","lat":18.00999758,"lng":79.57998979,"tz":"Asia/Kolkata","pop":1034690},{"name":"Rostov","province":"Rostov","country":"Russia","lat":47.23464785,"lng":39.7126558,"tz":"Europe/Moscow","pop":1032567},{"name":"Abbottabad","province":"N.W.F.P.","country":"Pakistan","lat":34.1495034,"lng":73.19950069,"tz":"Asia/Karachi","pop":1032324},{"name":"Jabalpur","province":"","country":"India","lat":23.16697,"lng":79.95006,"tz":"Asia/Kolkata","pop":1030168},{"name":"Sofia","province":"Grad Sofiya","country":"Bulgaria","lat":42.68334943,"lng":23.31665401,"tz":"Europe/Sofia","pop":1029914},{"name":"Hāora","province":"","country":"India","lat":22.57688,"lng":88.31857,"tz":"Asia/Kolkata","pop":1027672},{"name":"Ankang","province":"Shaanxi","country":"China","lat":32.67998069,"lng":109.0200016,"tz":"Asia/Chongqing","pop":1025000},{"name":"Zhuhai","province":"Guangdong","country":"China","lat":22.2769444,"lng":113.5677778,"tz":"Asia/Shanghai","pop":1023000},{"name":"Port Harcourt","province":"Rivers","country":"Nigeria","lat":4.810002257,"lng":7.010000772,"tz":"Africa/Lagos","pop":1020000},{"name":"Chelyabinsk","province":"Chelyabinsk","country":"Russia","lat":55.15499127,"lng":61.43866817,"tz":"Asia/Yekaterinburg","pop":1018802},{"name":"Toluca","province":"México","country":"Mexico","lat":19.3303821,"lng":-99.66999923,"tz":"America/Mexico_City","pop":1018441},{"name":"Aurangabad","province":"","country":"India","lat":19.87757,"lng":75.34226,"tz":"Asia/Kolkata","pop":1016441},{"name":"Dublin","province":"Dublin","country":"Ireland","lat":53.33306114,"lng":-6.248905682,"tz":"Europe/Dublin","pop":1013988},{"name":"Kazan","province":"Tatarstan","country":"Russia","lat":55.74994204,"lng":49.12634477,"tz":"Europe/Moscow","pop":1013635},{"name":"Calgary","province":"Alberta","country":"Canada","lat":51.08299176,"lng":-114.0799982,"tz":"America/Edmonton","pop":1012661},{"name":"Ulsan","province":"Ulsan","country":"South Korea","lat":35.54673077,"lng":129.3169539,"tz":"Asia/Seoul","pop":1011933},{"name":"Medina","province":"Al Madinah","country":"Saudi Arabia","lat":24.49998903,"lng":39.5800024,"tz":"Asia/Riyadh","pop":1010000},{"name":"Guatemala","province":"Guatemala","country":"Guatemala","lat":14.62113466,"lng":-90.52696558,"tz":"America/Guatemala","pop":1009469},{"name":"Sholapur","province":"Maharashtra","country":"India","lat":17.6704059,"lng":75.90000769,"tz":"Asia/Kolkata","pop":1009056},{"name":"Vitória","province":"Espírito Santo","country":"Brazil","lat":-20.32399331,"lng":-40.36599634,"tz":"America/Sao_Paulo","pop":1008328},{"name":"Maracay","province":"Aragua","country":"Venezuela","lat":10.2468797,"lng":-67.59580713,"tz":"America/Caracas","pop":1007000},{"name":"Neijiang","province":"Sichuan","country":"China","lat":29.58037661,"lng":105.0500114,"tz":"Asia/Chongqing","pop":1006427},{"name":"Vijayawada","province":"Andhra Pradesh","country":"India","lat":16.51995933,"lng":80.63000321,"tz":"Asia/Kolkata","pop":1005794},{"name":"Columbus","province":"Ohio","country":"United States of America","lat":39.97997438,"lng":-82.9900096,"tz":"America/New_York","pop":1003418},{"name":"Zhongli","province":"Taoyuan","country":"Taiwan","lat":24.96502525,"lng":121.2167765,"tz":"Asia/Taipei","pop":1001193},{"name":"Maceio","province":"Alagoas","country":"Brazil","lat":-9.619995505,"lng":-35.72997441,"tz":"America/Maceio","pop":1000216},{"name":"Maanshan","province":"Anhui","country":"China","lat":31.73040041,"lng":118.4800443,"tz":"Asia/Shanghai","pop":1000121},{"name":"Shivaji Nagar","province":"","country":"India","lat":18.53017,"lng":73.85263,"tz":"Asia/Kolkata","pop":1000000},{"name":"Solāpur","province":"","country":"India","lat":17.67152,"lng":75.91044,"tz":"Asia/Kolkata","pop":997281},{"name":"Samara","province":"Samara","country":"Russia","lat":53.19500755,"lng":50.15129512,"tz":"Europe/Samara","pop":996595},{"name":"Niteroi","province":"Rio de Janeiro","country":"Brazil","lat":-22.90001178,"lng":-43.09998967,"tz":"America/Sao_Paulo","pop":993920},{"name":"Changde","province":"Hunan","country":"China","lat":29.02999676,"lng":111.6800459,"tz":"Asia/Shanghai","pop":993390},{"name":"Ouagadougou","province":"Kadiogo","country":"Burkina Faso","lat":12.37031598,"lng":-1.524723756,"tz":"Africa/Ouagadougou","pop":992229},{"name":"Leeds","province":"West Yorkshire","country":"United Kingdom","lat":53.83000755,"lng":-1.580017539,"tz":"Europe/London","pop":992062},{"name":"Adelaide","province":"South Australia","country":"Australia","lat":-34.93498777,"lng":138.6000048,"tz":"Australia/Adelaide","pop":990677},{"name":"Kitakyushu","province":"Fukuoka","country":"Japan","lat":33.87039899,"lng":130.8200146,"tz":"Asia/Tokyo","pop":990287},{"name":"Mogadishu","province":"Banaadir","country":"Somalia","lat":2.066681334,"lng":45.36667761,"tz":"Africa/Mogadishu","pop":987694},{"name":"Songnam","province":"Gyeonggi-do","country":"South Korea","lat":37.4386111,"lng":127.1377778,"tz":"Asia/Seoul","pop":986968},{"name":"Huambo","province":"Huambo","country":"Angola","lat":-12.74998533,"lng":15.76000932,"tz":"Africa/Luanda","pop":986000},{"name":"Cologne","province":"Nordrhein-Westfalen","country":"Germany","lat":50.93000368,"lng":6.950004434,"tz":"Europe/Berlin","pop":983698},{"name":"Milwaukee","province":"Wisconsin","country":"United States of America","lat":43.05265505,"lng":-87.91996708,"tz":"America/Chicago","pop":983590},{"name":"Fez","province":"Fès - Boulemane","country":"Morocco","lat":34.05459963,"lng":-5.000377239,"tz":"Africa/Casablanca","pop":983446},{"name":"Yichun","province":"Jiangxi","country":"China","lat":27.8333333,"lng":114.4,"tz":"Asia/Shanghai","pop":982000},{"name":"Natal","province":"Amazonas","country":"Brazil","lat":-6.983825664,"lng":-60.26994938,"tz":"America/Manaus","pop":980588},{"name":"Ottawa","province":"Ontario","country":"Canada","lat":45.4166968,"lng":-75.7000153,"tz":"America/Toronto","pop":978565},{"name":"Srinagar","province":"","country":"India","lat":34.08565,"lng":74.80555,"tz":"Asia/Kolkata","pop":975857},{"name":"Weifang","province":"Shandong","country":"China","lat":36.7204059,"lng":119.1001098,"tz":"Asia/Shanghai","pop":973866},{"name":"San Bernardino","province":"California","country":"United States of America","lat":34.12038373,"lng":-117.3000342,"tz":"America/Los_Angeles","pop":973691},{"name":"Cincinnati","province":"Ohio","country":"United States of America","lat":39.16188479,"lng":-84.45692265,"tz":"America/New_York","pop":971191},{"name":"Ufa","province":"Bashkortostan","country":"Russia","lat":54.78997479,"lng":56.04003129,"tz":"Asia/Yekaterinburg","pop":969378},{"name":"Shangqiu","province":"Henan","country":"China","lat":34.45041526,"lng":115.6500362,"tz":"Asia/Shanghai","pop":967109},{"name":"Barquisimeto","province":"Lara","country":"Venezuela","lat":10.04999249,"lng":-69.29996668,"tz":"America/Caracas","pop":962745},{"name":"Xinyi","province":"Jiangsu","country":"China","lat":34.38000612,"lng":118.3500264,"tz":"Asia/Shanghai","pop":962656},{"name":"Chandigarh","province":"","country":"India","lat":30.73629,"lng":76.7884,"tz":"Asia/Kolkata","pop":960787},{"name":"Coimbatore","province":"","country":"India","lat":11.00555,"lng":76.96612,"tz":"Asia/Kolkata","pop":959823},{"name":"Jodhpur","province":"Rajasthan","country":"India","lat":26.29176597,"lng":73.01677283,"tz":"Asia/Kolkata","pop":958238},{"name":"Jamshedpur","province":"Jharkhand","country":"India","lat":22.78753542,"lng":86.19751868,"tz":"Asia/Kolkata","pop":958169},{"name":"Seville","province":"Andalucía","country":"Spain","lat":37.40501528,"lng":-5.980007366,"tz":"Europe/Madrid","pop":957533},{"name":"Kansas City","province":"Missouri","country":"United States of America","lat":39.10708851,"lng":-94.60409422,"tz":"America/Chicago","pop":955273},{"name":"Mudangiang","province":"Heilongjiang","country":"China","lat":44.57501691,"lng":129.5900122,"tz":"Asia/Harbin","pop":954958},{"name":"The Hague","province":"Zuid-Holland","country":"Netherlands","lat":52.08003684,"lng":4.269961302,"tz":"Europe/Amsterdam","pop":953863},{"name":"Oakland","province":"California","country":"United States of America","lat":37.76892071,"lng":-122.2211034,"tz":"America/Los_Angeles","pop":953044},{"name":"Sharjah","province":"Sharjah","country":"United Arab Emirates","lat":25.37138287,"lng":55.40647823,"tz":"Asia/Dubai","pop":952016},{"name":"Dnipropetrovsk","province":"Dnipropetrovs'k","country":"Ukraine","lat":48.47997235,"lng":35.00002356,"tz":"Europe/Kyiv","pop":949425},{"name":"Daqing","province":"Heilongjiang","country":"China","lat":46.57995913,"lng":125.0000081,"tz":"Asia/Harbin","pop":948244},{"name":"Lyon","province":"Rhône-Alpes","country":"France","lat":45.77000856,"lng":4.830030475,"tz":"Europe/Paris","pop":947659},{"name":"Chandigarh","province":"Chandigarh","country":"India","lat":30.71999697,"lng":76.78000565,"tz":"Asia/Kolkata","pop":946686},{"name":"Ranchi","province":"Jharkhand","country":"India","lat":23.37000633,"lng":85.33002641,"tz":"Asia/Kolkata","pop":945227},{"name":"Charlotte","province":"North Carolina","country":"United States of America","lat":35.20499453,"lng":-80.83003809,"tz":"America/New_York","pop":943575},{"name":"Da Nang","province":"Da Nang","country":"Vietnam","lat":16.06003908,"lng":108.2499711,"tz":"Asia/Ho_Chi_Minh","pop":943535},{"name":"Gaziantep","province":"Gaziantep","country":"Turkey","lat":37.07498374,"lng":37.38499426,"tz":"Europe/Istanbul","pop":943262},{"name":"Asuncion","province":"Asunción","country":"Paraguay","lat":-25.29640298,"lng":-57.64150517,"tz":"America/Asuncion","pop":940847},{"name":"Jianmen","province":"Hubei","country":"China","lat":30.65005292,"lng":113.1600073,"tz":"Asia/Shanghai","pop":937875},{"name":"Florence","province":"Toscana","country":"Italy","lat":43.78000083,"lng":11.25000036,"tz":"Europe/Rome","pop":935759},{"name":"Qom","province":"Qom","country":"Iran","lat":34.65001548,"lng":50.95000606,"tz":"Asia/Tehran","pop":933478},{"name":"Gwalior","province":"Madhya Pradesh","country":"India","lat":26.2299868,"lng":78.18007523,"tz":"Asia/Kolkata","pop":930229},{"name":"Nezahualcoyotl","province":"México","country":"Mexico","lat":19.41001548,"lng":-99.02998661,"tz":"America/Mexico_City","pop":929682},{"name":"Benin City","province":"Edo","country":"Nigeria","lat":6.340477314,"lng":5.620008096,"tz":"Africa/Lagos","pop":929013},{"name":"Natal","province":"Rio Grande do Norte","country":"Brazil","lat":-5.780023174,"lng":-35.24000431,"tz":"America/Fortaleza","pop":925522},{"name":"Baoshan","province":"Yunnan","country":"China","lat":25.11997703,"lng":99.15000972,"tz":"Asia/Chongqing","pop":925000},{"name":"Perm","province":"Perm'","country":"Russia","lat":57.99995974,"lng":56.24999263,"tz":null,"pop":924154},{"name":"Benxi","province":"Liaoning","country":"China","lat":41.33038291,"lng":123.7500069,"tz":"Asia/Shanghai","pop":923933},{"name":"Sheffield","province":"South Yorkshire","country":"United Kingdom","lat":53.36667666,"lng":-1.499996583,"tz":"Europe/London","pop":922800},{"name":"Shangrao","province":"Jiangxi","country":"China","lat":28.47039268,"lng":117.9699979,"tz":"Asia/Shanghai","pop":922422},{"name":"Jodhpur","province":"","country":"India","lat":26.26841,"lng":73.00594,"tz":"Asia/Kolkata","pop":921476},{"name":"Managua","province":"Managua","country":"Nicaragua","lat":12.15301658,"lng":-86.26849166,"tz":"America/Managua","pop":920000},{"name":"Austin","province":"Texas","country":"United States of America","lat":30.26694969,"lng":-97.74277836,"tz":"America/Chicago","pop":919684},{"name":"Ahvaz","province":"Khuzestan","country":"Iran","lat":31.27998863,"lng":48.72001298,"tz":"Asia/Tehran","pop":918573},{"name":"Kelang","province":"Selangor","country":"Malaysia","lat":3.020369892,"lng":101.5500183,"tz":"Asia/Kuala_Lumpur","pop":917934},{"name":"Jerusalem","province":"Jerusalem","country":"Israel","lat":31.77840782,"lng":35.20662593,"tz":"Asia/Jerusalem","pop":915150},{"name":"Monrovia","province":"Montserrado","country":"Liberia","lat":6.31055666,"lng":-10.80475163,"tz":"Africa/Monrovia","pop":913331},{"name":"Madurai","province":"","country":"India","lat":9.919,"lng":78.11953,"tz":"Asia/Kolkata","pop":909908},{"name":"Huaiyin","province":"Jiangsu","country":"China","lat":33.58000327,"lng":119.0299849,"tz":"Asia/Shanghai","pop":909615},{"name":"Huaibei","province":"Anhui","country":"China","lat":33.95036826,"lng":116.7500207,"tz":"Asia/Shanghai","pop":908020},{"name":"Xining","province":"Gansu","country":"China","lat":36.6199986,"lng":101.7700048,"tz":"Asia/Chongqing","pop":907766},{"name":"Düsseldorf","province":"Nordrhein-Westfalen","country":"Germany","lat":51.22037355,"lng":6.779988972,"tz":"Europe/Berlin","pop":906197},{"name":"Jacksonville","province":"Florida","country":"United States of America","lat":30.33002077,"lng":-81.66998682,"tz":"America/New_York","pop":904954},{"name":"Goyang","province":"Gyeonggi-do","country":"South Korea","lat":37.65273586,"lng":126.8372485,"tz":"Asia/Seoul","pop":903000},{"name":"Ikare","province":"Ondo","country":"Nigeria","lat":7.530430521,"lng":5.759999551,"tz":"Africa/Lagos","pop":899966},{"name":"Guwahati","province":"","country":"India","lat":26.1844,"lng":91.7458,"tz":"Asia/Kolkata","pop":899094},{"name":"Tegucigalpa","province":"Francisco Morazán","country":"Honduras","lat":14.1020449,"lng":-87.21752934,"tz":"America/Tegucigalpa","pop":898424},{"name":"Xiantao","province":"Hubei","country":"China","lat":30.3704059,"lng":113.4400419,"tz":"Asia/Shanghai","pop":897703},{"name":"Zigong","province":"Sichuan","country":"China","lat":29.40000002,"lng":104.780002,"tz":"Asia/Chongqing","pop":897481},{"name":"Kathmandu","province":"Bhaktapur","country":"Nepal","lat":27.71669191,"lng":85.31664221,"tz":"Asia/Kathmandu","pop":895000},{"name":"Zhuzhou","province":"Hunan","country":"China","lat":27.82999249,"lng":113.1500337,"tz":"Asia/Shanghai","pop":894679},{"name":"Hims","province":"Homs (Hims)","country":"Syria","lat":34.72995892,"lng":36.72002193,"tz":"Asia/Damascus","pop":890202},{"name":"Hengyang","province":"Hunan","country":"China","lat":26.88002464,"lng":112.5900162,"tz":"Asia/Shanghai","pop":887801},{"name":"Hamamatsu","province":"Shizuoka","country":"Japan","lat":34.71807334,"lng":137.7327193,"tz":"Asia/Tokyo","pop":887243},{"name":"Cartagena","province":"Bolívar","country":"Colombia","lat":10.39973859,"lng":-75.51439356,"tz":"America/Bogota","pop":887000},{"name":"Amsterdam","province":"Noord-Holland","country":"Netherlands","lat":52.34996869,"lng":4.916640176,"tz":"Europe/Amsterdam","pop":886318},{"name":"Lupanshui","province":"Guizhou","country":"China","lat":26.59443483,"lng":104.8333321,"tz":"Asia/Chongqing","pop":886256},{"name":"Edmonton","province":"Alberta","country":"Canada","lat":53.55002464,"lng":-113.4999819,"tz":"America/Edmonton","pop":885196},{"name":"Glasgow","province":"Glasgow","country":"United Kingdom","lat":55.87440472,"lng":-4.250707236,"tz":"Europe/London","pop":885134},{"name":"Dushanbe","province":"Tadzhikistan Territories","country":"Tajikistan","lat":38.56003522,"lng":68.77387935,"tz":"Asia/Dushanbe","pop":882822},{"name":"Gwalior","province":"","country":"India","lat":26.22983,"lng":78.17337,"tz":"Asia/Kolkata","pop":882458},{"name":"Duisburg","province":"Nordrhein-Westfalen","country":"Germany","lat":51.42997316,"lng":6.750016641,"tz":"Europe/Berlin","pop":882381},{"name":"Zhucheng","province":"Shandong","country":"China","lat":35.98995953,"lng":119.3800927,"tz":"Asia/Shanghai","pop":881964},{"name":"Bandar Lampung","province":"Lampung","country":"Indonesia","lat":-5.449604066,"lng":105.3000219,"tz":"Asia/Jakarta","pop":881801},{"name":"Qinhuangdao","province":"Hebei","country":"China","lat":39.93036501,"lng":119.6200264,"tz":"Asia/Shanghai","pop":881359},{"name":"Banghazi","province":"Benghazi","country":"Libya","lat":32.11673342,"lng":20.06672318,"tz":"Africa/Tripoli","pop":881187},{"name":"Mysuru","province":"Karnataka","country":"India","lat":12.30998374,"lng":76.66001298,"tz":"Asia/Kolkata","pop":877657},{"name":"Virginia Beach","province":"Virginia","country":"United States of America","lat":36.85321433,"lng":-75.97831873,"tz":"America/New_York","pop":877476},{"name":"Vijayawada","province":"","country":"India","lat":16.50745,"lng":80.6466,"tz":"Asia/Kolkata","pop":874587},{"name":"Aba","province":"Abia","country":"Nigeria","lat":5.100397968,"lng":7.34998002,"tz":"Africa/Lagos","pop":874385},{"name":"Donetsk","province":"Donets'k","country":"Ukraine","lat":48.00000165,"lng":37.82998002,"tz":"Europe/Kyiv","pop":874138},{"name":"Kaifeng","province":"Henan","country":"China","lat":34.85000327,"lng":114.3500122,"tz":"Asia/Shanghai","pop":872000},{"name":"Basra","province":"Al-Basrah","country":"Iraq","lat":30.51352378,"lng":47.81355668,"tz":"Asia/Baghdad","pop":870000},{"name":"Thiruvananthapuram","province":"Kerala","country":"India","lat":8.499983743,"lng":76.95002112,"tz":"Asia/Kolkata","pop":869077},{"name":"Abuja","province":"Federal Capital Territory","country":"Nigeria","lat":9.083333149,"lng":7.533328002,"tz":"Africa/Lagos","pop":869068},{"name":"Mysore","province":"","country":"India","lat":12.29791,"lng":76.63925,"tz":"Asia/Kolkata","pop":868313},{"name":"Xuanzhou","province":"Anhui","country":"China","lat":30.9525,"lng":118.7552778,"tz":"Asia/Shanghai","pop":866000},{"name":"Puch'on","province":"Gyeonggi-do","country":"South Korea","lat":37.4988889,"lng":126.7830556,"tz":"Asia/Seoul","pop":866000},{"name":"Tiruchirappalli","province":"Tamil Nadu","country":"India","lat":10.80999778,"lng":78.68996659,"tz":"Asia/Kolkata","pop":863242},{"name":"Cagayan de Oro","province":"Misamis Oriental","country":"Philippines","lat":8.450839456,"lng":124.6852986,"tz":"Asia/Manila","pop":861825},{"name":"Rohini","province":"","country":"India","lat":28.74322,"lng":77.06778,"tz":"Asia/Kolkata","pop":860000},{"name":"Bogor","province":"Jawa Barat","country":"Indonesia","lat":-6.570000795,"lng":106.7500109,"tz":"Asia/Jakarta","pop":859000},{"name":"Marrakesh","province":"Marrakech - Tensift - Al Haouz","country":"Morocco","lat":31.6299931,"lng":-7.999987428,"tz":"Africa/Casablanca","pop":855648},{"name":"Yangquan","province":"Shanxi","country":"China","lat":37.86997398,"lng":113.5700081,"tz":"Asia/Shanghai","pop":851802},{"name":"Pingdingshan","province":"Henan","country":"China","lat":33.73040753,"lng":113.2999987,"tz":"Asia/Shanghai","pop":849000},{"name":"Padang","province":"Sumatera Barat","country":"Indonesia","lat":-0.960007305,"lng":100.3600134,"tz":"Asia/Jakarta","pop":847676},{"name":"Odessa","province":"Odessa","country":"Ukraine","lat":46.4900163,"lng":30.71000118,"tz":"Europe/Kyiv","pop":847501},{"name":"Ranchi","province":"","country":"India","lat":23.34316,"lng":85.3094,"tz":"Asia/Kolkata","pop":846454},{"name":"Panama City","province":"Panama","country":"Panama","lat":8.96801719,"lng":-79.53303715,"tz":"America/Panama","pop":844584},{"name":"Nova Iguacu","province":"Rio de Janeiro","country":"Brazil","lat":-22.74002155,"lng":-43.46996708,"tz":"America/Sao_Paulo","pop":844583},{"name":"Az Zarqa","province":"Zarqa","country":"Jordan","lat":32.06999208,"lng":36.1000081,"tz":"Asia/Amman","pop":843678},{"name":"Duque de Caxias","province":"Rio de Janeiro","country":"Brazil","lat":-22.76999388,"lng":-43.30997685,"tz":"America/Sao_Paulo","pop":842890},{"name":"Hubballi","province":"Karnataka","country":"India","lat":15.35997845,"lng":75.12501623,"tz":"Asia/Kolkata","pop":841402},{"name":"Merida","province":"Yucatán","country":"Mexico","lat":20.96663881,"lng":-89.61663355,"tz":"America/Merida","pop":841088},{"name":"Mombasa","province":"Coast","country":"Kenya","lat":-4.040026022,"lng":39.68991817,"tz":"Africa/Nairobi","pop":840834},{"name":"Hubli","province":"","country":"India","lat":15.34776,"lng":75.13378,"tz":"Asia/Kolkata","pop":840214},{"name":"Yancheng","province":"Jiangsu","country":"China","lat":33.3855556,"lng":120.1252778,"tz":"Asia/Shanghai","pop":839000},{"name":"Johor Bahru","province":"Johor","country":"Malaysia","lat":1.480024637,"lng":103.7300402,"tz":"Asia/Kuala_Lumpur","pop":838745},{"name":"Helsinki","province":"Southern Finland","country":"Finland","lat":60.17556337,"lng":24.93412634,"tz":"Europe/Helsinki","pop":836729},{"name":"Ndjamena","province":"Hadjer-Lamis","country":"Chad","lat":12.11309654,"lng":15.04914831,"tz":"Africa/Ndjamena","pop":835194},{"name":"San Luis Potosi","province":"San Luis Potosí","country":"Mexico","lat":22.16997622,"lng":-100.9999956,"tz":"America/Mexico_City","pop":834852},{"name":"Anyang","province":"Henan","country":"China","lat":36.07997988,"lng":114.3500122,"tz":"Asia/Shanghai","pop":834065},{"name":"Torreon","province":"Coahuila","country":"Mexico","lat":25.57005292,"lng":-103.4200029,"tz":"America/Monterrey","pop":834033},{"name":"Port Elizabeth","province":"Eastern Cape","country":"South Africa","lat":-33.97003375,"lng":25.60002885,"tz":"Africa/Johannesburg","pop":830527},{"name":"Mianyang","province":"Sichuan","country":"China","lat":31.46997703,"lng":104.7699768,"tz":"Asia/Chongqing","pop":830068},{"name":"Niamey","province":"Niamey","country":"Niger","lat":13.51670595,"lng":2.116656045,"tz":"Africa/Niamey","pop":828896},{"name":"Kermanshah","province":"Kermanshah","country":"Iran","lat":34.38000612,"lng":47.06001094,"tz":"Asia/Tehran","pop":828313},{"name":"Mendoza","province":"Mendoza","country":"Argentina","lat":-32.88333006,"lng":-68.81661117,"tz":"America/Argentina/Mendoza","pop":827815},{"name":"Ulaanbaatar","province":"Ulaanbaatar","country":"Mongolia","lat":47.9166734,"lng":106.9166158,"tz":"Asia/Ulaanbaatar","pop":827306},{"name":"Yueyang","province":"Hunan","country":"China","lat":29.38005292,"lng":113.1000109,"tz":"Asia/Shanghai","pop":826000},{"name":"Salem","province":"Tamil Nadu","country":"India","lat":11.66999697,"lng":78.18007523,"tz":"Asia/Kolkata","pop":825698},{"name":"Quanzhou","province":"Fujian","country":"China","lat":24.9000163,"lng":118.5799865,"tz":"Asia/Shanghai","pop":823572},{"name":"Xinxiang","province":"Henan","country":"China","lat":35.32043968,"lng":113.8699898,"tz":"Asia/Shanghai","pop":823301},{"name":"Bishkek","province":"Bishkek","country":"Kyrgyzstan","lat":42.87307945,"lng":74.58520422,"tz":"Asia/Bishkek","pop":820606},{"name":"Jullundur","province":"Punjab","country":"India","lat":31.33492067,"lng":75.56902014,"tz":"Asia/Kolkata","pop":820089},{"name":"Guilin","province":"Guangxi","country":"China","lat":25.2799931,"lng":110.280028,"tz":"Asia/Chongqing","pop":818176},{"name":"Jining","province":"Shandong","country":"China","lat":35.40040895,"lng":116.5500329,"tz":"Asia/Shanghai","pop":818164},{"name":"Newcastle","province":"New South Wales","country":"Australia","lat":-32.84534788,"lng":151.8150122,"tz":"Australia/Sydney","pop":816286},{"name":"Saratov","province":"Saratov","country":"Russia","lat":51.57998985,"lng":46.0299963,"tz":"Europe/Saratov","pop":814587},{"name":"Chifeng","province":"Nei Mongol","country":"China","lat":42.27001548,"lng":118.9499898,"tz":"Asia/Shanghai","pop":811827},{"name":"Cebu","province":"Cebu","country":"Philippines","lat":10.31997601,"lng":123.9000752,"tz":"Asia/Manila","pop":806817},{"name":"Valencia","province":"Comunidad Valenciana","country":"Spain","lat":39.48501752,"lng":-0.400012046,"tz":"Europe/Madrid","pop":806652},{"name":"Nantong","province":"Jiangsu","country":"China","lat":32.0303821,"lng":120.8250175,"tz":"Asia/Shanghai","pop":806626},{"name":"Lingyuan","province":"Liaoning","country":"China","lat":41.24,"lng":119.4011111,"tz":"Asia/Shanghai","pop":806000},{"name":"Cochabamba","province":"Cochabamba","country":"Bolivia","lat":-17.41001097,"lng":-66.16997685,"tz":"America/La_Paz","pop":804138},{"name":"Joao Pessoa","province":"Paraíba","country":"Brazil","lat":-7.10113513,"lng":-34.87607117,"tz":"America/Fortaleza","pop":803442},{"name":"Bhubaneshwar","province":"Orissa","country":"India","lat":20.27042808,"lng":85.82736039,"tz":"Asia/Kolkata","pop":803122},{"name":"Zhangjiakou","province":"Hebei","country":"China","lat":40.83000002,"lng":114.9299768,"tz":"Asia/Shanghai","pop":802821},{"name":"Kigali","province":"Kigali City","country":"Rwanda","lat":-1.953590069,"lng":30.06053178,"tz":"Africa/Kigali","pop":802631},{"name":"Volgograd","province":"Volgograd","country":"Russia","lat":48.71000999,"lng":44.49996049,"tz":"Europe/Volgograd","pop":801828},{"name":"Rotterdam","province":"Zuid-Holland","country":"Netherlands","lat":51.9199691,"lng":4.479974323,"tz":"Europe/Amsterdam","pop":801600},{"name":"Kingston","province":"Kingston","country":"Jamaica","lat":17.97707662,"lng":-76.76743371,"tz":"America/Jamaica","pop":801337},{"name":"Baoji","province":"Shaanxi","country":"China","lat":34.38000612,"lng":107.1499865,"tz":"Asia/Chongqing","pop":800000},{"name":"Narela","province":"","country":"India","lat":28.85267,"lng":77.09288,"tz":"Asia/Kolkata","pop":800000},{"name":"Heze","province":"Shandong","country":"China","lat":35.22998008,"lng":115.4500484,"tz":"Asia/Shanghai","pop":796301},{"name":"Irbil","province":"Arbil","country":"Iraq","lat":36.1790436,"lng":44.00862097,"tz":"Asia/Baghdad","pop":795870},{"name":"Bandar Lampung","province":"Lampung","country":"Indonesia","lat":-5.430018698,"lng":105.2699979,"tz":"Asia/Jakarta","pop":795757},{"name":"Kota","province":"Rajasthan","country":"India","lat":25.17999921,"lng":75.83499874,"tz":"Asia/Kolkata","pop":795044},{"name":"Porto","province":"Porto","country":"Portugal","lat":41.15000633,"lng":-8.620001263,"tz":"Europe/Lisbon","pop":793317},{"name":"Nampo","province":"Namp'o-si","country":"North Korea","lat":38.76692078,"lng":125.4524338,"tz":"Asia/Pyongyang","pop":791000},{"name":"Bucaramanga","province":"Santander","country":"Colombia","lat":7.1300932,"lng":-73.12588302,"tz":"America/Bogota","pop":790410},{"name":"Raleigh","province":"North Carolina","country":"United States of America","lat":35.81878135,"lng":-78.64469344,"tz":"America/New_York","pop":789992},{"name":"Queretaro","province":"Querétaro","country":"Mexico","lat":20.63001853,"lng":-100.3799817,"tz":"America/Mexico_City","pop":786393},{"name":"Callao","province":"Lima","country":"Peru","lat":-12.07002684,"lng":-77.13496647,"tz":"America/Lima","pop":786232},{"name":"Jalandhar","province":"","country":"India","lat":31.32556,"lng":75.57917,"tz":"Asia/Kolkata","pop":785178},{"name":"Foshan","province":"Guangdong","country":"China","lat":23.03005292,"lng":113.1200097,"tz":"Asia/Shanghai","pop":785174},{"name":"Jiamusi","province":"Heilongjiang","country":"China","lat":46.83002138,"lng":130.3500175,"tz":"Asia/Harbin","pop":784775},{"name":"Thiruvananthapuram","province":"","country":"India","lat":8.4855,"lng":76.94924,"tz":"Asia/Kolkata","pop":784153},{"name":"Bareilly","province":"Uttar Pradesh","country":"India","lat":28.34538739,"lng":79.41999955,"tz":"Asia/Kolkata","pop":781218},{"name":"Jinzhou","province":"Liaoning","country":"China","lat":41.12036989,"lng":121.1000394,"tz":"Asia/Shanghai","pop":780135},{"name":"Aligarh","province":"Uttar Pradesh","country":"India","lat":27.89221092,"lng":78.06178788,"tz":"Asia/Kolkata","pop":779104},{"name":"Orlando","province":"Florida","country":"United States of America","lat":28.50997683,"lng":-81.38003036,"tz":"America/New_York","pop":778985},{"name":"Salem","province":"","country":"India","lat":11.65376,"lng":78.15538,"tz":"Asia/Kolkata","pop":778396},{"name":"Atal Nagar","province":"Chhattisgarh","country":"India","lat":21.23499453,"lng":81.63500647,"tz":"Asia/Kolkata","pop":777498},{"name":"Yiyang","province":"Hunan","country":"China","lat":28.60041058,"lng":112.3300321,"tz":"Asia/Shanghai","pop":777304},{"name":"Malang","province":"Jawa Timur","country":"Indonesia","lat":-7.97999225,"lng":112.610015,"tz":"Asia/Jakarta","pop":775858},{"name":"Arequipa","province":"Arequipa","country":"Peru","lat":-16.41999388,"lng":-71.53001144,"tz":"America/Lima","pop":775785},{"name":"Tiruchirappalli","province":"","country":"India","lat":10.8155,"lng":78.69651,"tz":"Asia/Kolkata","pop":775484},{"name":"Aden","province":"`Adan","country":"Yemen","lat":12.77972251,"lng":45.00949011,"tz":"Asia/Aden","pop":775301},{"name":"Vereeniging","province":"Gauteng","country":"South Africa","lat":-26.64960203,"lng":27.95998816,"tz":"Africa/Johannesburg","pop":774341},{"name":"Fuyang","province":"Zhejiang","country":"China","lat":30.0533333,"lng":119.9519444,"tz":"Asia/Shanghai","pop":771000},{"name":"Palermo","province":"Sicily","country":"Italy","lat":38.12502301,"lng":13.35002722,"tz":"Europe/Rome","pop":767588},{"name":"Xiangfan","province":"Hubei","country":"China","lat":32.01999514,"lng":112.1300443,"tz":"Asia/Shanghai","pop":765978},{"name":"Aguascalientes","province":"Aguascalientes","country":"Mexico","lat":21.87945992,"lng":-102.2904135,"tz":"America/Mexico_City","pop":763590},{"name":"Djibouti","province":"Djibouti","country":"Djibouti","lat":11.59501446,"lng":43.14800167,"tz":"Africa/Djibouti","pop":763507},{"name":"Kota","province":"","country":"India","lat":25.18254,"lng":75.83907,"tz":"Asia/Kolkata","pop":763088},{"name":"Bhubaneshwar","province":"","country":"India","lat":20.27241,"lng":85.83385,"tz":"Asia/Kolkata","pop":762243},{"name":"Mesa","province":"Arizona","country":"United States of America","lat":33.42391461,"lng":-111.7360844,"tz":"America/Phoenix","pop":762218},{"name":"Lvov","province":"L'viv","country":"Ukraine","lat":49.83498008,"lng":24.02999548,"tz":"Europe/Kyiv","pop":760842},{"name":"Auckland","province":"Auckland","country":"New Zealand","lat":-36.850013,"lng":174.7649808,"tz":"Pacific/Auckland","pop":759510},{"name":"Montevideo","province":"Montevideo","country":"Uruguay","lat":-34.85804157,"lng":-56.17105229,"tz":"America/Montevideo","pop":759162},{"name":"Lódz","province":"Lódz","country":"Poland","lat":51.77499086,"lng":19.45136023,"tz":"Europe/Warsaw","pop":758000},{"name":"Kraków","province":"Lesser Poland","country":"Poland","lat":50.05997927,"lng":19.96001135,"tz":"Europe/Warsaw","pop":755525},{"name":"Rajshahi","province":"Rajshahi","country":"Bangladesh","lat":24.37498374,"lng":88.6050203,"tz":"Asia/Dhaka","pop":755067},{"name":"Zaria","province":"Kaduna","country":"Nigeria","lat":11.0799813,"lng":7.710009724,"tz":"Africa/Lagos","pop":754837},{"name":"Moradabad","province":"Uttar Pradesh","country":"India","lat":28.8417912,"lng":78.75678422,"tz":"Asia/Kolkata","pop":754070},{"name":"Memphis","province":"Tennessee","country":"United States of America","lat":35.1199868,"lng":-89.99999516,"tz":"America/Chicago","pop":753844},{"name":"Alīgarh","province":"","country":"India","lat":27.88145,"lng":78.07464,"tz":"Asia/Kolkata","pop":753207},{"name":"Okayama","province":"Okayama","country":"Japan","lat":34.67202964,"lng":133.9170865,"tz":"Asia/Tokyo","pop":752872},{"name":"Agadir","province":"Souss - Massa - Draâ","country":"Morocco","lat":30.43998822,"lng":-9.620043581,"tz":"Africa/Casablanca","pop":752032},{"name":"Yangjiang","province":"Guangdong","country":"China","lat":21.85040916,"lng":111.9700024,"tz":"Asia/Chongqing","pop":751182},{"name":"Bhiwandi","province":"Maharashtra","country":"India","lat":19.35001914,"lng":73.12999589,"tz":"Asia/Kolkata","pop":751018},{"name":"Dandong","province":"Liaoning","country":"China","lat":40.14360781,"lng":124.3935852,"tz":"Asia/Shanghai","pop":750987},{"name":"Quetta","province":"Baluchistan","country":"Pakistan","lat":30.22000165,"lng":67.02499385,"tz":"Asia/Karachi","pop":750838},{"name":"Chihuahua","province":"Chihuahua","country":"Mexico","lat":28.64498151,"lng":-106.0849823,"tz":"America/Chihuahua","pop":750634},{"name":"Teresina","province":"Piauí","country":"Brazil","lat":-5.095000388,"lng":-42.7800092,"tz":"America/Fortaleza","pop":746861},{"name":"Bareilly","province":"","country":"India","lat":28.36678,"lng":79.43167,"tz":"Asia/Kolkata","pop":745435},{"name":"General Santos","province":"South Cotabato","country":"Philippines","lat":6.110827249,"lng":125.1747261,"tz":"Asia/Manila","pop":744308},{"name":"Zhenjiang","province":"Jiangsu","country":"China","lat":32.21998293,"lng":119.4300122,"tz":"Asia/Shanghai","pop":743276},{"name":"Vila Velha","province":"Amapá","country":"Brazil","lat":3.21666282,"lng":-51.21665186,"tz":"America/Belem","pop":742414},{"name":"Vila Velha","province":"Espírito Santo","country":"Brazil","lat":-20.36760822,"lng":-40.31798893,"tz":"America/Sao_Paulo","pop":742414},{"name":"Liaoyang","province":"Liaoning","country":"China","lat":41.27999839,"lng":123.1800158,"tz":"Asia/Shanghai","pop":740945},{"name":"Jos","province":"Plateau","country":"Nigeria","lat":9.929973978,"lng":8.890041055,"tz":"Africa/Lagos","pop":737069},{"name":"Mexicali","province":"Baja California","country":"Mexico","lat":32.64998252,"lng":-115.4800161,"tz":"America/Tijuana","pop":736139},{"name":"Bengbu","province":"Anhui","country":"China","lat":32.94999005,"lng":117.330037,"tz":"Asia/Shanghai","pop":735324},{"name":"Dhanbad","province":"Jharkhand","country":"India","lat":23.80039349,"lng":86.41998572,"tz":"Asia/Kolkata","pop":732818},{"name":"Bacolod","province":"Negros Occidental","country":"Philippines","lat":10.63168825,"lng":122.9816817,"tz":"Asia/Manila","pop":730587},{"name":"Fuxin","province":"Liaoning","country":"China","lat":42.0104706,"lng":121.6600052,"tz":"Asia/Shanghai","pop":729525},{"name":"Bangui","province":"Bangui","country":"Central African Republic","lat":4.366644306,"lng":18.55828813,"tz":"Africa/Bangui","pop":727348},{"name":"Jiaxing","province":"Zhejiang","country":"China","lat":30.77040733,"lng":120.7499833,"tz":"Asia/Shanghai","pop":727051},{"name":"Cotonou","province":"Ouémé","country":"Benin","lat":6.400008564,"lng":2.519990599,"tz":"Africa/Porto-Novo","pop":726292},{"name":"Albuquerque","province":"New Mexico","country":"United States of America","lat":35.10497479,"lng":-106.6413308,"tz":"America/Denver","pop":725723},{"name":"Zürich","province":"Zürich","country":"Switzerland","lat":47.37998781,"lng":8.55001013,"tz":"Europe/Zurich","pop":724865},{"name":"Riga","province":"Riga","country":"Latvia","lat":56.95002382,"lng":24.09996537,"tz":"Europe/Riga","pop":723803},{"name":"Oran","province":"Oran","country":"Algeria","lat":35.71000246,"lng":-0.61997278,"tz":"Africa/Algiers","pop":721992},{"name":"Cucuta","province":"Norte de Santander","country":"Colombia","lat":7.920019144,"lng":-72.51997685,"tz":"America/Bogota","pop":721772},{"name":"Morādābād","province":"","country":"India","lat":28.83893,"lng":78.77684,"tz":"Asia/Kolkata","pop":721139},{"name":"Cheongju","province":"Chungcheongbuk-do","country":"South Korea","lat":36.64389895,"lng":127.5011991,"tz":"Asia/Seoul","pop":719421},{"name":"Tangier","province":"Tanger - Tétouan","country":"Morocco","lat":35.74728701,"lng":-5.832703696,"tz":"Africa/Casablanca","pop":719208},{"name":"Konya","province":"Konya","country":"Turkey","lat":37.87501243,"lng":32.47500972,"tz":"Europe/Istanbul","pop":718680},{"name":"San Salvador","province":"San Salvador","country":"El Salvador","lat":13.71000165,"lng":-89.20304122,"tz":"America/El_Salvador","pop":717904},{"name":"Geneva","province":"Genève","country":"Switzerland","lat":46.21000755,"lng":6.140028034,"tz":"Europe/Zurich","pop":716193},{"name":"Lianyungang","province":"Jiangsu","country":"China","lat":34.60043194,"lng":119.170028,"tz":"Asia/Shanghai","pop":715600},{"name":"Zagreb","province":"Grad Zagreb","country":"Croatia","lat":45.80000673,"lng":15.99999467,"tz":"Europe/Zagreb","pop":710746},{"name":"Joinville","province":"Santa Catarina","country":"Brazil","lat":-26.31995807,"lng":-48.83994938,"tz":"America/Sao_Paulo","pop":710738},{"name":"New Haven","province":"Connecticut","country":"United States of America","lat":41.33038291,"lng":-72.90000533,"tz":"America/New_York","pop":707883},{"name":"Oslo","province":"Oslo","country":"Norway","lat":59.91669029,"lng":10.74997921,"tz":"Europe/Oslo","pop":707500},{"name":"Bhiwandi","province":"","country":"India","lat":19.30023,"lng":73.05881,"tz":"Asia/Kolkata","pop":707035},{"name":"Qingyuan","province":"Guangdong","country":"China","lat":23.7003996,"lng":113.0300927,"tz":"Asia/Shanghai","pop":706717},{"name":"Changzhi","province":"Shanxi","country":"China","lat":36.18387534,"lng":113.1052819,"tz":"Asia/Shanghai","pop":706000},{"name":"Pekanbaru","province":"Riau","country":"Indonesia","lat":0.564964212,"lng":101.425013,"tz":"Asia/Jakarta","pop":705218},{"name":"Maiduguri","province":"Borno","country":"Nigeria","lat":11.84996014,"lng":13.16001298,"tz":"Africa/Lagos","pop":704230},{"name":"Nashville","province":"Tennessee","country":"United States of America","lat":36.16997438,"lng":-86.77998499,"tz":"America/Chicago","pop":703926},{"name":"Antalya","province":"Antalya","country":"Turkey","lat":36.88998212,"lng":30.69997595,"tz":"Europe/Istanbul","pop":703469},{"name":"Nouakchott","province":"Nouakchott","country":"Mauritania","lat":18.08642702,"lng":-15.97534041,"tz":"Africa/Nouakchott","pop":701772},{"name":"Ilorin","province":"Kwara","country":"Nigeria","lat":8.490010192,"lng":4.549995889,"tz":"Africa/Lagos","pop":701742},{"name":"Yongzhou","province":"Hunan","country":"China","lat":26.23037437,"lng":111.6199979,"tz":"Asia/Shanghai","pop":700181},{"name":"Kumamoto","province":"Kumamoto","country":"Japan","lat":32.80092938,"lng":130.700642,"tz":"Asia/Tokyo","pop":699328},{"name":"Bulawayo","province":"Bulawayo","country":"Zimbabwe","lat":-20.16999754,"lng":28.58000199,"tz":"Africa/Harare","pop":697096},{"name":"Kozhikode","province":"Kerala","country":"India","lat":11.25043601,"lng":75.76998979,"tz":"Asia/Kolkata","pop":696461},{"name":"Culiacan","province":"Sinaloa","country":"Mexico","lat":24.82999473,"lng":-107.3799679,"tz":"America/Mazatlan","pop":695735},{"name":"Sao Jose dos Campos","province":"São Paulo","country":"Brazil","lat":-23.19999347,"lng":-45.87994918,"tz":"America/Sao_Paulo","pop":695323},{"name":"Ansan","province":"Gyeonggi-do","country":"South Korea","lat":37.34806785,"lng":126.8595328,"tz":"Asia/Seoul","pop":695111},{"name":"Huzhou","province":"Zhejiang","country":"China","lat":30.87037539,"lng":120.0999971,"tz":"Asia/Shanghai","pop":694660},{"name":"Langfang","province":"Hebei","country":"China","lat":39.5203642,"lng":116.6799991,"tz":"Asia/Shanghai","pop":694466},{"name":"Yingkow","province":"Liaoning","country":"China","lat":40.67034568,"lng":122.2800191,"tz":"Asia/Shanghai","pop":693080},{"name":"Islamabad","province":"F.C.T.","country":"Pakistan","lat":33.69999595,"lng":73.16663448,"tz":"Asia/Karachi","pop":690800},{"name":"Can Tho","province":"Can Tho","country":"Vietnam","lat":10.04999249,"lng":105.7700191,"tz":"Asia/Ho_Chi_Minh","pop":690299},{"name":"Antwerpen","province":"Antwerp","country":"Belgium","lat":51.22037355,"lng":4.415017048,"tz":"Europe/Brussels","pop":689903},{"name":"Enugu","province":"Enugu","country":"Nigeria","lat":6.450031351,"lng":7.499996703,"tz":"Africa/Lagos","pop":688862},{"name":"Huangshi","province":"Hubei","country":"China","lat":30.22000165,"lng":115.0999922,"tz":"Asia/Shanghai","pop":688090},{"name":"Campo Grande","province":"Mato Grosso do Sul","country":"Brazil","lat":-20.45003213,"lng":-54.61662521,"tz":"America/Campo_Grande","pop":687723},{"name":"Jiaozuo","province":"Henan","country":"China","lat":35.2500047,"lng":113.2200036,"tz":"Asia/Shanghai","pop":687270},{"name":"Shizuoka","province":"Shizuoka","country":"Japan","lat":34.98583478,"lng":138.3853926,"tz":"Asia/Tokyo","pop":686447},{"name":"Jixi","province":"Heilongjiang","country":"China","lat":45.29995974,"lng":130.9700313,"tz":"Asia/Harbin","pop":684380},{"name":"Acapulco","province":"Guerrero","country":"Mexico","lat":16.84999086,"lng":-99.91597905,"tz":"America/Mexico_City","pop":683860},{"name":"Taizz","province":"Ta`izz","country":"Yemen","lat":13.60445253,"lng":44.03942012,"tz":"Asia/Aden","pop":683111},{"name":"Warri","province":"Delta","country":"Nigeria","lat":5.519958922,"lng":5.759999551,"tz":"Africa/Lagos","pop":683065},{"name":"Jaboatao","province":"Pernambuco","country":"Brazil","lat":-8.110010153,"lng":-35.02004358,"tz":"America/Recife","pop":681214},{"name":"Raipur","province":"","country":"India","lat":21.23333,"lng":81.63333,"tz":"Asia/Kolkata","pop":679995},{"name":"Jeonju","province":"Jeollabuk-do","country":"South Korea","lat":35.83141624,"lng":127.1403942,"tz":"Asia/Seoul","pop":679949},{"name":"Saltillo","province":"Coahuila","country":"Mexico","lat":25.41995872,"lng":-101.0049823,"tz":"America/Monterrey","pop":679287},{"name":"Tucumán","province":"Tucumán","country":"Argentina","lat":-26.81600014,"lng":-65.21662419,"tz":"America/Argentina/Tucuman","pop":678804},{"name":"Yichang","province":"Hubei","country":"China","lat":30.69997235,"lng":111.2800187,"tz":"Asia/Shanghai","pop":675863},{"name":"West Palm Beach","province":"Florida","country":"United States of America","lat":26.74501996,"lng":-80.12362126,"tz":"America/New_York","pop":675522},{"name":"Shaoguan","province":"Guangdong","country":"China","lat":24.79997072,"lng":113.5799816,"tz":"Asia/Shanghai","pop":674508},{"name":"Gorakhpur","province":"Uttar Pradesh","country":"India","lat":26.75039431,"lng":83.38001623,"tz":"Asia/Kolkata","pop":674246},{"name":"Gorakhpur","province":"","country":"India","lat":26.76628,"lng":83.36889,"tz":"Asia/Kolkata","pop":674246},{"name":"Tucson","province":"Arizona","country":"United States of America","lat":32.20499676,"lng":-110.8899862,"tz":"America/Phoenix","pop":670954},{"name":"Birmingham","province":"Alabama","country":"United States of America","lat":33.53000633,"lng":-86.82499516,"tz":"America/Chicago","pop":670142},{"name":"Tulsa","province":"Oklahoma","country":"United States of America","lat":36.12000327,"lng":-95.93002079,"tz":"America/Chicago","pop":669434},{"name":"Amravati","province":"Maharashtra","country":"India","lat":20.94997316,"lng":77.77002274,"tz":"Asia/Kolkata","pop":669144},{"name":"Pingxiang","province":"Jiangxi","country":"China","lat":27.62000531,"lng":113.8500427,"tz":"Asia/Shanghai","pop":666562},{"name":"Puyang","province":"Henan","country":"China","lat":35.70039064,"lng":114.9799996,"tz":"Asia/Shanghai","pop":666322},{"name":"Providence","province":"Rhode Island","country":"United States of America","lat":41.82110231,"lng":-71.4149797,"tz":"America/New_York","pop":663727},{"name":"Sarajevo","province":"Sarajevo","country":"Bosnia and Herzegovina","lat":43.8500224,"lng":18.38300167,"tz":"Europe/Sarajevo","pop":662817},{"name":"Santo Andre","province":"São Paulo","country":"Brazil","lat":-23.65283405,"lng":-46.52781661,"tz":"America/Sao_Paulo","pop":662373},{"name":"Vientiane","province":"Vientiane [prefecture]","country":"Laos","lat":17.96669273,"lng":102.59998,"tz":"Asia/Vientiane","pop":662174},{"name":"Chisinau","province":"Chisinau","country":"Moldova","lat":47.00502362,"lng":28.85771114,"tz":"Europe/Chisinau","pop":662064},{"name":"Muscat","province":"Muscat","country":"Oman","lat":23.61332481,"lng":58.59331213,"tz":"Asia/Muscat","pop":660779},{"name":"Oklahoma City","province":"Oklahoma","country":"United States of America","lat":35.47004295,"lng":-97.51868351,"tz":"America/Chicago","pop":660475},{"name":"Olinda","province":"Pernambuco","country":"Brazil","lat":-7.999991029,"lng":-34.8499506,"tz":"America/Recife","pop":659554},{"name":"Wuhu","province":"Anhui","country":"China","lat":31.3504236,"lng":118.3699735,"tz":"Asia/Shanghai","pop":658762},{"name":"El Paso","province":"Texas","country":"United States of America","lat":31.77998395,"lng":-106.5099952,"tz":"America/Denver","pop":658331},{"name":"Tirana","province":"Durrës","country":"Albania","lat":41.32754071,"lng":19.81888301,"tz":"Europe/Tirane","pop":658318},{"name":"Hegang","province":"Heilongjiang","country":"China","lat":47.40001243,"lng":130.3700162,"tz":"Asia/Harbin","pop":657834},{"name":"Zunyi","province":"Guizhou","country":"China","lat":27.70002626,"lng":106.9200264,"tz":"Asia/Chongqing","pop":657646},{"name":"Yinchuan","province":"Ningxia Hui","country":"China","lat":38.46797365,"lng":106.2730375,"tz":"Asia/Chongqing","pop":657614},{"name":"Ipoh","province":"Perak","country":"Malaysia","lat":4.599989236,"lng":101.0649833,"tz":"Asia/Kuala_Lumpur","pop":656227},{"name":"Kolhapur","province":"Maharashtra","country":"India","lat":16.70000002,"lng":74.22000688,"tz":"Asia/Kolkata","pop":655921},{"name":"Leshan","province":"Sichuan","country":"China","lat":29.56709576,"lng":103.7333475,"tz":"Asia/Chongqing","pop":655739},{"name":"As Sulaymaniyah","province":"As-Sulaymaniyah","country":"Iraq","lat":35.56127769,"lng":45.43085974,"tz":"Asia/Baghdad","pop":654318},{"name":"Shiyan","province":"Hubei","country":"China","lat":32.57003908,"lng":110.7799975,"tz":"Asia/Shanghai","pop":653824},{"name":"Ashgabat","province":"Ahal","country":"Turkmenistan","lat":37.94999493,"lng":58.38329911,"tz":"Asia/Ashgabat","pop":652841},{"name":"Bien Hoa","province":"Đồng Nai","country":"Vietnam","lat":10.97001385,"lng":106.8300577,"tz":"Asia/Ho_Chi_Minh","pop":652646},{"name":"Zhanyi","province":"Yunnan","country":"China","lat":25.6004645,"lng":103.8166499,"tz":"Asia/Chongqing","pop":652604},{"name":"Samarqand","province":"Samarkand","country":"Uzbekistan","lat":39.67001914,"lng":66.94499874,"tz":"Asia/Samarkand","pop":652150},{"name":"Tianshui","province":"Gansu","country":"China","lat":34.60001853,"lng":105.9199841,"tz":"Asia/Chongqing","pop":649884},{"name":"Tolyatti","province":"Samara","country":"Russia","lat":53.48039064,"lng":49.53004106,"tz":"Europe/Samara","pop":648622},{"name":"Sokoto","province":"Sokoto","country":"Nigeria","lat":13.06001548,"lng":5.240031289,"tz":"Africa/Lagos","pop":648020},{"name":"Buffalo","province":"New York","country":"United States of America","lat":42.87997825,"lng":-78.88000208,"tz":"America/New_York","pop":647779},{"name":"Lilongwe","province":"Lilongwe","country":"Malawi","lat":-13.98329507,"lng":33.78330196,"tz":"Africa/Blantyre","pop":646750},{"name":"Dehra Dun","province":"Uttaranchal","country":"India","lat":30.32040895,"lng":78.05000565,"tz":"Asia/Kolkata","pop":646322},